stop_id,stop_code,stop_name,stop_desc,stop_lat,stop_lon,stop_url,location_type,parent_station
6726,0012,"Iš parko","",54.71012,25.32164,https://www.stops.lt/vilnius/index.html#stop/0012,,
6876,110107,"pietūs Antakalnio žiede","",54.72222,25.31814,https://www.stops.lt/vilnius/index.html#stop/110107,,
3104,330509,"Skalvių žiedas","",54.73530,25.21980,https://www.stops.lt/vilnius/index.html#stop/330509,,
7572,0824,"Verkių TD","",54.72122,25.29310,https://www.stops.lt/vilnius/index.html#stop/0824,,
9483,3906,"1-asis Lentvaris","iš miesto",54.64437,25.06552,https://www.stops.lt/vilnius/index.html#stop/3906,,
15578,010109,"A88 GP Lvivo g.","",54.69740,25.27606,https://www.stops.lt/vilnius/index.html#stop/010109,,
8840,0010,"Antakalnio TD","",54.70917,25.32134,https://www.stops.lt/vilnius/index.html#stop/0010,,
15371,260308,"AP","",54.63184,25.27179,https://www.stops.lt/vilnius/index.html#stop/260308,,
18116,510607,"atstova","",54.69842,25.24540,https://www.stops.lt/vilnius/index.html#stop/510607,,
17111,400221,"Atstova Dariaus ir Girėno g.","",54.63971,25.27490,https://www.stops.lt/vilnius/index.html#stop/400221,,
9867,020111,"Atstova J.Jasinskio g.","",54.68870,25.26062,https://www.stops.lt/vilnius/index.html#stop/020111,,
17024,040420,"Atstova Seinų g.","",54.67168,25.28564,https://www.stops.lt/vilnius/index.html#stop/040420,,
9102,1631,"Bijūnų st.","link žiedo",54.66740,25.21588,https://www.stops.lt/vilnius/index.html#stop/1631,,
18075,3008regio,"Bratoniškės","link miesto",54.84986,25.37356,https://www.stops.lt/vilnius/index.html#stop/3008regio,,
10247,380609,"Fabijoniškių žiedas","",54.74025,25.24113,https://www.stops.lt/vilnius/index.html#stop/380609,,
16291,2145,"Geležinio Vilko st.","",54.75762,25.27183,https://www.stops.lt/vilnius/index.html#stop/2145,,
16295,2146,"Geležinio Vilko st.","",54.75848,25.27229,https://www.stops.lt/vilnius/index.html#stop/2146,,
16287,230705,"Gerovės g.","",54.69063,25.42228,https://www.stops.lt/vilnius/index.html#stop/230705,,
8258,3890,"Kaimelio žiedas","išlaipinimas",54.73141,25.24430,https://www.stops.lt/vilnius/index.html#stop/3890,,
18415,050508,"Kaimelio žiedas","",54.73127,25.24388,https://www.stops.lt/vilnius/index.html#stop/050508,,
17047,130112,"Liepkalnio atstova","",54.66834,25.29636,https://www.stops.lt/vilnius/index.html#stop/130112,,
18412,010304,"Meškoniių įkrovimo vieta","",54.68001,25.41770,https://www.stops.lt/vilnius/index.html#stop/010304,,
18426,2241,"Naujaneriai","",54.80143,25.34802,https://www.stops.lt/vilnius/index.html#stop/2241,,
18427,2242,"Naujaneriai","",54.80145,25.34816,https://www.stops.lt/vilnius/index.html#stop/2242,,
8822,231106,"Naujosios Vilnios žiedas","",54.68550,25.43102,https://www.stops.lt/vilnius/index.html#stop/231106,,
18375,6015,"Oro uostas","",54.64396,25.27959,https://www.stops.lt/vilnius/index.html#stop/6015,,
10310,2300,"Skirgiškės","link miesto",54.82865,25.36410,https://www.stops.lt/vilnius/index.html#stop/2300,,
18440,5007a,"Tarandė","iš centro",54.74980,25.20762,https://www.stops.lt/vilnius/index.html#stop/5007a,,
16037,270305,"TRANSREVIO AP2","",54.62682,25.24264,https://www.stops.lt/vilnius/index.html#stop/270305,,
16693,260502,"TRANSREVIO AP2","",54.63387,25.25458,https://www.stops.lt/vilnius/index.html#stop/260502,,
17461,400220,"UAB ""KAUTRA""","",54.63377,25.26274,https://www.stops.lt/vilnius/index.html#stop/400220,,
17537,510506,"UAB Kautra","",54.86334,25.49296,https://www.stops.lt/vilnius/index.html#stop/510506,,
10359,1523,"Vikingų slėnis","visos kryptys",54.65304,25.28045,https://www.stops.lt/vilnius/index.html#stop/1523,,
8841,0020,"Viršuliškių TD","",54.70425,25.21551,https://www.stops.lt/vilnius/index.html#stop/0020,,
16032,240410,"Žemųjų Panerių GP","",54.64627,25.20955,https://www.stops.lt/vilnius/index.html#stop/240410,,
18073,2929,"Plungės st.","",54.66163,25.14856,https://www.stops.lt/vilnius/index.html#stop/2929,,
16307,1029,"Kairėnai","iš miesto",54.73719,25.40245,https://www.stops.lt/vilnius/index.html#stop/1029,,
9481,3904,"Bališkės","link miesto",54.64632,25.09966,https://www.stops.lt/vilnius/index.html#stop/3904,,
9482,3905,"Bališkės","iš miesto",54.64613,25.09864,https://www.stops.lt/vilnius/index.html#stop/3905,,
18187,3542a,"Šilas","iš centro",54.78181,25.38366,https://www.stops.lt/vilnius/index.html#stop/3542a,,
18188,3543a,"Šilas","",54.78211,25.38397,https://www.stops.lt/vilnius/index.html#stop/3543a,,
8291,3838,"Mykolo Lietuvio st.","išlaipinimas",54.74380,25.22603,https://www.stops.lt/vilnius/index.html#stop/3838,,
16323,3837,"Mykolo Lietuvio st.","",54.74254,25.22692,https://www.stops.lt/vilnius/index.html#stop/3837,,
1017,1118,"Antakalnio žiedas","visos kryptys, troleibusai",54.72291,25.31872,https://www.stops.lt/vilnius/index.html#stop/1118,,
5483,1118a,"Antakalnio žiedas","visos kryptys, autobusai",54.72232,25.31887,https://www.stops.lt/vilnius/index.html#stop/1118a,,
5485,1118c,"Antakalnio žiedas","visos kryptys",54.72274,25.31912,https://www.stops.lt/vilnius/index.html#stop/1118c,,
5118,1115,"Antakalnis","link centro",54.71960,25.31724,https://www.stops.lt/vilnius/index.html#stop/1115,,
6711,1116,"Antakalnis","iš centro",54.72106,25.31821,https://www.stops.lt/vilnius/index.html#stop/1116,,
5095,1110,"Klinikų st.","iš centro",54.71125,25.31486,https://www.stops.lt/vilnius/index.html#stop/1110,,
5096,1109,"Klinikų st.","link centro",54.71058,25.31437,https://www.stops.lt/vilnius/index.html#stop/1109,,
5820,1103,"Leono Sapiegos st.","link centro",54.69630,25.30809,https://www.stops.lt/vilnius/index.html#stop/1103,,
5826,1104,"Leono Sapiegos st.","iš centro",54.69697,25.30873,https://www.stops.lt/vilnius/index.html#stop/1104,,
5819,1105,"Petro Vileišio st.","link centro",54.70165,25.30922,https://www.stops.lt/vilnius/index.html#stop/1105,,
6702,1106,"Petro Vileišio st.","iš centro",54.70313,25.31002,https://www.stops.lt/vilnius/index.html#stop/1106,,
5092,1108,"Šilo tiltas","iš centro",54.70545,25.31096,https://www.stops.lt/vilnius/index.html#stop/1108,,
5818,1107,"Šilo tiltas","link centro",54.70447,25.31024,https://www.stops.lt/vilnius/index.html#stop/1107,,
1035,1113,"Tverečiaus st.","link centro",54.71619,25.31646,https://www.stops.lt/vilnius/index.html#stop/1113,,
5119,1114,"Tverečiaus st.","iš centro",54.71750,25.31659,https://www.stops.lt/vilnius/index.html#stop/1114,,
5476,1121,"Lizdeikos st.","link Antakalnio",54.72728,25.31552,https://www.stops.lt/vilnius/index.html#stop/1121,,
5490,1132,"Lizdeikos st.","link Žirmūnų",54.72720,25.31625,https://www.stops.lt/vilnius/index.html#stop/1132,,
741,1119,"Nemenčinės plentas","link Saulėtekio",54.72278,25.32004,https://www.stops.lt/vilnius/index.html#stop/1119,,
5117,1117,"Nemenčinės plentas","link centro",54.72385,25.32007,https://www.stops.lt/vilnius/index.html#stop/1117,,
3566,1021,"Saulėtekis","link Nemenčinės",54.72719,25.32671,https://www.stops.lt/vilnius/index.html#stop/1021,,
5103,1122,"Saulėtekis","link centro",54.72622,25.32482,https://www.stops.lt/vilnius/index.html#stop/1122,,
5107,1003,"Gedimino technikos universitetas","iš centro",54.72385,25.33566,https://www.stops.lt/vilnius/index.html#stop/1003,,
5116,1002,"Gedimino technikos universitetas","link centro",54.72412,25.33451,https://www.stops.lt/vilnius/index.html#stop/1002,,
5104,1001,"Saulėtekis","iš centro",54.72624,25.32752,https://www.stops.lt/vilnius/index.html#stop/1001,,
5105,1023,"Vilniaus universitetas","link Saulėtekio",54.72454,25.33199,https://www.stops.lt/vilnius/index.html#stop/1023,,
6715,1022,"Vilniaus universitetas","link centro",54.72489,25.33134,https://www.stops.lt/vilnius/index.html#stop/1022,,
5091,1129,"Šilo tiltas","link Šilo tilto",54.70519,25.31007,https://www.stops.lt/vilnius/index.html#stop/1129,,
6886,1126,"Lyglaukiai","link centro",54.70277,25.35406,https://www.stops.lt/vilnius/index.html#stop/1126,,
6880,1128,"Viršupis","link centro",54.69579,25.34397,https://www.stops.lt/vilnius/index.html#stop/1128,,
4520,1130,"Bistryčios st.","iš centro",54.70840,25.33044,https://www.stops.lt/vilnius/index.html#stop/1130,,
4521,1131,"Bistryčios st.","link Antakalnio",54.70839,25.32956,https://www.stops.lt/vilnius/index.html#stop/1131,,
6720,1112,"Klinikų st.","link centro",54.71161,25.31573,https://www.stops.lt/vilnius/index.html#stop/1112,,
6723,1111,"Klinikų st.","iš centro",54.71134,25.31669,https://www.stops.lt/vilnius/index.html#stop/1111,,
1167,1125,"Žolyno st.","link centro",54.70782,25.33847,https://www.stops.lt/vilnius/index.html#stop/1125,,
9755,2299,"Mileišiškės","link centro",54.71176,25.34174,https://www.stops.lt/vilnius/index.html#stop/2299,,
9756,2298,"Mileišiškės","iš centro",54.71172,25.34209,https://www.stops.lt/vilnius/index.html#stop/2298,,
9612,2399,"Mileišiškių sodai","iš centro",54.71312,25.34809,https://www.stops.lt/vilnius/index.html#stop/2399,,
9613,2400,"Mileišiškių sodai","link centro",54.71297,25.34743,https://www.stops.lt/vilnius/index.html#stop/2400,,
10530,2297,"Žilvičių st.","link centro",54.70684,25.38076,https://www.stops.lt/vilnius/index.html#stop/2297,,
10531,2296,"Žilvičių st.","iš centro",54.70689,25.38114,https://www.stops.lt/vilnius/index.html#stop/2296,,
17246,1143,"Saulės slėnis","iš centro",54.70241,25.32416,https://www.stops.lt/vilnius/index.html#stop/1143,,
17248,1145,"Saulės slėnis","į centrą",54.70233,25.32467,https://www.stops.lt/vilnius/index.html#stop/1145,,
17239,1139,"Šilo tiltas","iš centro",54.70488,25.31085,https://www.stops.lt/vilnius/index.html#stop/1139,,
17241,1140,"Vinco Grybo st.","iš centro",54.70387,25.31720,https://www.stops.lt/vilnius/index.html#stop/1140,,
17242,1141,"Vinco Grybo st.","į centrą",54.70401,25.31701,https://www.stops.lt/vilnius/index.html#stop/1141,,
9608,2395,"Anapilio st.","link centro",54.70764,25.35853,https://www.stops.lt/vilnius/index.html#stop/2395,,
9609,2396,"Anapilio st.","iš centro",54.70771,25.35840,https://www.stops.lt/vilnius/index.html#stop/2396,,
9968,1047,"Sapieginės miškas","link N.Vilnios",54.71025,25.35687,https://www.stops.lt/vilnius/index.html#stop/1047,,
9969,1048,"Sapieginės miškas","link centro",54.70983,25.35769,https://www.stops.lt/vilnius/index.html#stop/1048,,
17889,1127,"Šilo st.","link centro",54.70037,25.34960,https://www.stops.lt/vilnius/index.html#stop/1127,,
9675,2397,"Viršupio sodai","iš centro",54.71267,25.35319,https://www.stops.lt/vilnius/index.html#stop/2397,,
9676,2398,"Viršupio sodai","link centro",54.71332,25.35260,https://www.stops.lt/vilnius/index.html#stop/2398,,
11046,1136,"Vieversių st.","link centro",54.71065,25.32032,https://www.stops.lt/vilnius/index.html#stop/1136,,
11047,1137,"Vieversių st.","iš centro",54.70983,25.32257,https://www.stops.lt/vilnius/index.html#stop/1137,,
8266,1134,"Žolyno st.","iš centro",54.70782,25.33774,https://www.stops.lt/vilnius/index.html#stop/1134,,
7189,5124,"Agrastų st.","iš miesto",54.62943,25.17703,https://www.stops.lt/vilnius/index.html#stop/5124,,
7187,5123,"Margirio st.","link A.Panerių",54.61288,25.18688,https://www.stops.lt/vilnius/index.html#stop/5123,,
7188,5118,"Margirio st.","iš miesto",54.61256,25.18706,https://www.stops.lt/vilnius/index.html#stop/5118,,
7910,2810a,"Chemijos st.","link miesto",54.62689,25.14704,https://www.stops.lt/vilnius/index.html#stop/2810a,,
5747,2811,"Chemijos st.","link Galvės g.",54.62628,25.15099,https://www.stops.lt/vilnius/index.html#stop/2811,,
5750,2813,"Prekybos st.","iš miesto",54.62063,25.15741,https://www.stops.lt/vilnius/index.html#stop/2813,,
5751,2812,"Prekybos st.","link miesto",54.62128,25.15673,https://www.stops.lt/vilnius/index.html#stop/2812,,
7180,2822,"Kazbėjų žiedas","visos kryptys",54.61660,25.13801,https://www.stops.lt/vilnius/index.html#stop/2822,,
6449,2801,"Fermentų st.","link miesto",54.62471,25.14078,https://www.stops.lt/vilnius/index.html#stop/2801,,
6450,2802,"Fermentų st.","iš miesto",54.62549,25.13989,https://www.stops.lt/vilnius/index.html#stop/2802,,
6455,2807,"Kazbėjų st.","iš miesto",54.61584,25.14953,https://www.stops.lt/vilnius/index.html#stop/2807,,
6456,2806,"Kazbėjų st.","link Galvės g.",54.61645,25.14909,https://www.stops.lt/vilnius/index.html#stop/2806,,
6457,2808,"Slėnis","iš miesto",54.61215,25.15422,https://www.stops.lt/vilnius/index.html#stop/2808,,
6458,2809,"Slėnis","link miesto",54.61227,25.15440,https://www.stops.lt/vilnius/index.html#stop/2809,,
4531,2821,"Vytauto Andriaus Graičiūno st.","į miestą",54.60814,25.16000,https://www.stops.lt/vilnius/index.html#stop/2821,,
6454,2805,"Vokės st.","link Baltosios Vokės",54.61923,25.14521,https://www.stops.lt/vilnius/index.html#stop/2805,,
6469,2804,"Vokės st.","link Galvės g. I",54.61976,25.14492,https://www.stops.lt/vilnius/index.html#stop/2804,,
9311,2949,"Kadugių st.","link Baltosios Vokės",54.62743,25.17996,https://www.stops.lt/vilnius/index.html#stop/2949,,
9312,2950,"Kadugių st.","link Ž. Panerių",54.62674,25.18154,https://www.stops.lt/vilnius/index.html#stop/2950,,
9308,2947,"Vasarotojų st.","link Baltosios Vokės",54.62322,25.19010,https://www.stops.lt/vilnius/index.html#stop/2947,,
9310,2948,"Vasarotojų st.","link Ž. Panerių",54.62365,25.18902,https://www.stops.lt/vilnius/index.html#stop/2948,,
9200,5111,"Baltoji Vokė","iš miesto",54.60365,25.19329,https://www.stops.lt/vilnius/index.html#stop/5111,,
9201,5110,"Baltoji Vokė","link miesto",54.60240,25.19557,https://www.stops.lt/vilnius/index.html#stop/5110,,
9726,2814,"Juodšilių st.","link Galvės g.",54.61669,25.16242,https://www.stops.lt/vilnius/index.html#stop/2814,,
9727,2820,"Juodšilių st.","link Baltosios Vokės",54.61606,25.16298,https://www.stops.lt/vilnius/index.html#stop/2820,,
9115,2802a,"Fermentų st.","link miesto",54.62654,25.13932,https://www.stops.lt/vilnius/index.html#stop/2802a,,
9298,2823,"Vilniaus Pergalė","link miesto",54.61410,25.15204,https://www.stops.lt/vilnius/index.html#stop/2823,,
10577,2825,"Vilniaus Pergalė","iš miesto",54.61403,25.15191,https://www.stops.lt/vilnius/index.html#stop/2825,,
16749,2828,"Vytauto Andriaus Graičiūno st.","iš miesto",54.60815,25.15942,https://www.stops.lt/vilnius/index.html#stop/2828,,
9303,2946,"Zuikių st.","iš miesto",54.63242,25.19844,https://www.stops.lt/vilnius/index.html#stop/2946,,
7080,4902,"1-osios Bukiškės","link Riešės",54.76356,25.20003,https://www.stops.lt/vilnius/index.html#stop/4902,,
7082,4901,"2-osios Bukiškės","link centro",54.76309,25.19852,https://www.stops.lt/vilnius/index.html#stop/4901,,
9970,2154,"Bajorų miškas","link Bajorų",54.75623,25.24332,https://www.stops.lt/vilnius/index.html#stop/2154,,
9971,2155,"Bajorų miškas","link miesto",54.75626,25.24250,https://www.stops.lt/vilnius/index.html#stop/2155,,
9693,2150,"Mokslininkų st.","link Bajorų",54.75445,25.24977,https://www.stops.lt/vilnius/index.html#stop/2150,,
9694,2149,"Mokslininkų st.","link miesto",54.75454,25.24930,https://www.stops.lt/vilnius/index.html#stop/2149,,
9815,2152,"Riaubonių st.","link Santariškių",54.75526,25.23294,https://www.stops.lt/vilnius/index.html#stop/2152,,
15548,2157,"Bajorai","link Santariškių",54.75682,25.23783,https://www.stops.lt/vilnius/index.html#stop/2157,,
15550,2153,"Šaulio st.","link Santariškių",54.75759,25.22938,https://www.stops.lt/vilnius/index.html#stop/2153,,
15551,2158,"Šaulio st.","link Bukiškių",54.75772,25.22900,https://www.stops.lt/vilnius/index.html#stop/2158,,
9496,2148,"Bajorai","link Santariškių",54.75673,25.23716,https://www.stops.lt/vilnius/index.html#stop/2148,,
9053,2261,"Ragės st.","iš miesto",54.78495,25.35139,https://www.stops.lt/vilnius/index.html#stop/2261,,
9054,2262,"Ragės st.","link miesto",54.78468,25.35194,https://www.stops.lt/vilnius/index.html#stop/2262,,
16832,2270,"Žynių st.","į centrą",54.78168,25.35503,https://www.stops.lt/vilnius/index.html#stop/2270,,
16870,2271,"Žynių st.","iš centro",54.78308,25.35433,https://www.stops.lt/vilnius/index.html#stop/2271,,
9081,2259,"Balsių mokykla","iš miesto",54.78058,25.35980,https://www.stops.lt/vilnius/index.html#stop/2259,,
17792,2169,"Aitvarų st.","į miestą",54.78674,25.36723,https://www.stops.lt/vilnius/index.html#stop/2169,,
17131,2166,"Bubilo st.","į miestą",54.78356,25.36891,https://www.stops.lt/vilnius/index.html#stop/2166,,
17133,2168,"Kryžiokų sodų st.","į miestą",54.77993,25.36615,https://www.stops.lt/vilnius/index.html#stop/2168,,
9045,2255,"Austėjos st.","link miesto",54.77823,25.34554,https://www.stops.lt/vilnius/index.html#stop/2255,,
9046,2256,"Austėjos st.","iš miesto",54.77817,25.34615,https://www.stops.lt/vilnius/index.html#stop/2256,,
15113,2268,"Laimos st.","link miesto",54.77810,25.35586,https://www.stops.lt/vilnius/index.html#stop/2268,,
15114,2269,"Laimos st.","iš miesto",54.77804,25.35628,https://www.stops.lt/vilnius/index.html#stop/2269,,
9047,2257,"Žalčių st.","link miesto",54.77816,25.35174,https://www.stops.lt/vilnius/index.html#stop/2257,,
9048,2258,"Žalčių st.","iš miesto",54.77804,25.35262,https://www.stops.lt/vilnius/index.html#stop/2258,,
10551,2260,"Krakiškių sodai","iš miesto",54.80074,25.34014,https://www.stops.lt/vilnius/index.html#stop/2260,,
10552,2264,"Krakiškių sodai","link miesto",54.80091,25.34074,https://www.stops.lt/vilnius/index.html#stop/2264,,
17130,2165,"Užpalių st.","į miestą",54.78858,25.36426,https://www.stops.lt/vilnius/index.html#stop/2165,,
17129,2164,"Žvorūnos st.","į miestą",54.78773,25.35966,https://www.stops.lt/vilnius/index.html#stop/2164,,
8315,2222,"Balsiai","iš miesto",54.78618,25.34781,https://www.stops.lt/vilnius/index.html#stop/2222,,
9798,2263,"Balsiai","link miesto",54.78604,25.34776,https://www.stops.lt/vilnius/index.html#stop/2263,,
18370,2221,"Balsiai","link miesto",54.78544,25.34673,https://www.stops.lt/vilnius/index.html#stop/2221,,
5822,2101,"Ateities st.","link Pašilaičių",54.73682,25.26515,https://www.stops.lt/vilnius/index.html#stop/2101,,
5828,2002,"Ateities st.","link Kalvarijų g.",54.73707,25.26672,https://www.stops.lt/vilnius/index.html#stop/2002,,
6640,2112,"Kalvarijos","link Baltupio g.",54.73933,25.27535,https://www.stops.lt/vilnius/index.html#stop/2112,,
6633,5143,"Rugių st.","link Kalvarijų g.",54.73819,25.27044,https://www.stops.lt/vilnius/index.html#stop/5143,,
6634,5142,"Rugių st.","link Geležinio Vilko g.",54.73801,25.26928,https://www.stops.lt/vilnius/index.html#stop/5142,,
348,2017,"Ateities st.","link centro",54.73600,25.26599,https://www.stops.lt/vilnius/index.html#stop/2017,,
5827,2019,"Ateities st.","įlaipinimas",54.73630,25.26656,https://www.stops.lt/vilnius/index.html#stop/2019,,
6773,2102,"Ateities st.","link Santariškių",54.73750,25.26584,https://www.stops.lt/vilnius/index.html#stop/2102,,
6776,2103,"Mokyklos st.","link centro",54.74535,25.26338,https://www.stops.lt/vilnius/index.html#stop/2103,,
6777,2104,"Mokyklos st.","iš centro",54.74629,25.26375,https://www.stops.lt/vilnius/index.html#stop/2104,,
5835,2010,"Baltupiai","iš centro",54.72758,25.27858,https://www.stops.lt/vilnius/index.html#stop/2010,,
5833,2008,"Didlaukio st.","link centro",54.72903,25.26926,https://www.stops.lt/vilnius/index.html#stop/2008,,
5834,2009,"Didlaukio st.","iš centro",54.72915,25.27162,https://www.stops.lt/vilnius/index.html#stop/2009,,
6500,2115,"Jeruzalė","iš centro",54.74415,25.27788,https://www.stops.lt/vilnius/index.html#stop/2115,,
6501,2114,"Jeruzalė","link centro",54.74295,25.27691,https://www.stops.lt/vilnius/index.html#stop/2114,,
6497,2113,"Kalvarijos","link Santariškių",54.73997,25.27677,https://www.stops.lt/vilnius/index.html#stop/2113,,
5836,2011,"Baltupiai","link centro",54.72688,25.28001,https://www.stops.lt/vilnius/index.html#stop/2011,,
6487,2018,"Baltupiai","iš centro",54.72828,25.28013,https://www.stops.lt/vilnius/index.html#stop/2018,,
6494,2003,"Kalvarijos","link centro",54.73854,25.27686,https://www.stops.lt/vilnius/index.html#stop/2003,,
5839,2012,"Naujakiemio st.","link centro",54.72387,25.28144,https://www.stops.lt/vilnius/index.html#stop/2012,,
5840,2013,"Naujakiemio st.","iš centro",54.72467,25.28114,https://www.stops.lt/vilnius/index.html#stop/2013,,
6488,2006,"Pušynas","iš centro",54.73436,25.27891,https://www.stops.lt/vilnius/index.html#stop/2006,,
6489,2007,"Pušynas","link centro",54.73328,25.27880,https://www.stops.lt/vilnius/index.html#stop/2007,,
6491,2004,"Seminarija","iš centro",54.73702,25.27791,https://www.stops.lt/vilnius/index.html#stop/2004,,
6492,2005,"Seminarija","link centro",54.73576,25.27801,https://www.stops.lt/vilnius/index.html#stop/2005,,
6748,4402,"Buivydiškės","link centro",54.71687,25.19645,https://www.stops.lt/vilnius/index.html#stop/4402,,
6749,4403,"Buivydiškės","iš centro",54.71735,25.19697,https://www.stops.lt/vilnius/index.html#stop/4403,,
6751,4404,"Sodų st.","iš centro",54.72409,25.18789,https://www.stops.lt/vilnius/index.html#stop/4404,,
6752,4405,"Sodų st.","link centro",54.72427,25.18717,https://www.stops.lt/vilnius/index.html#stop/4405,,
6743,3403,"Tvenkinių st.","link centro",54.71065,25.20082,https://www.stops.lt/vilnius/index.html#stop/3403,,
6746,4401,"Tvenkinių st.","iš centro",54.71104,25.20066,https://www.stops.lt/vilnius/index.html#stop/4401,,
10280,3404,"Sidaronių st.","iš centro",54.70881,25.20298,https://www.stops.lt/vilnius/index.html#stop/3404,,
10281,3405,"Sidaronių st.","link centro",54.70795,25.20358,https://www.stops.lt/vilnius/index.html#stop/3405,,
16971,3406,"Vytauto Pociūno st.","iš centro",54.70395,25.20551,https://www.stops.lt/vilnius/index.html#stop/3406,,
16973,3407,"Vytauto Pociūno st.","link centro",54.70496,25.20548,https://www.stops.lt/vilnius/index.html#stop/3407,,
15558,4910,"Mėtų st.","",54.75899,25.22010,https://www.stops.lt/vilnius/index.html#stop/4910,,
15561,4911,"Mėtų st.","",54.75930,25.21930,https://www.stops.lt/vilnius/index.html#stop/4911,,
15202,4905,"Liepų st.","",54.76238,25.20977,https://www.stops.lt/vilnius/index.html#stop/4905,,
15556,4907,"Aušros st.","",54.75959,25.20734,https://www.stops.lt/vilnius/index.html#stop/4907,,
5378,0703,"Kalvarijų turgus","link centro",54.69931,25.28249,https://www.stops.lt/vilnius/index.html#stop/0703,,
6843,0704,"Kalvarijų turgus","iš centro",54.70019,25.28301,https://www.stops.lt/vilnius/index.html#stop/0704,,
5244,0102,"Žaliasis tiltas","link centro",54.69234,25.28003,https://www.stops.lt/vilnius/index.html#stop/0102,,
5245,0101,"Žaliasis tiltas","iš centro",54.69236,25.28048,https://www.stops.lt/vilnius/index.html#stop/0101,,
753,0104,"Europos aikštė","link Pilaitės",54.69564,25.27743,https://www.stops.lt/vilnius/index.html#stop/0104,,
988,0106,"Lietuvos sąjūdžio kelias","link Pilaitės",54.69853,25.26650,https://www.stops.lt/vilnius/index.html#stop/0106,,
6635,0105,"Lietuvos sąjūdžio kelias","link Žirmūnų",54.69825,25.26630,https://www.stops.lt/vilnius/index.html#stop/0105,,
7381,0113,"Nacionalinė dailės galerija","link Žirmūnų",54.69671,25.27311,https://www.stops.lt/vilnius/index.html#stop/0113,,
7382,0114,"Nacionalinė dailės galerija","link Pilaitės",54.69793,25.27003,https://www.stops.lt/vilnius/index.html#stop/0114,,
7769,0115,"Šnipiškės","link Žalgirio g.",54.69983,25.26892,https://www.stops.lt/vilnius/index.html#stop/0115,,
677,0110,"Lvivo st.","link centro",54.69457,25.28387,https://www.stops.lt/vilnius/index.html#stop/0110,,
5667,0109,"Lvivo st.","link Žirmūnų",54.69448,25.28276,https://www.stops.lt/vilnius/index.html#stop/0109,,
17638,0103,"Europos aikštė","link Žirmūnų",54.69528,25.27759,https://www.stops.lt/vilnius/index.html#stop/0103,,
3551,0222,"Alberto Goštauto st.","Nuo Žaliojo tilto",54.69288,25.27088,https://www.stops.lt/vilnius/index.html#stop/0222,,
5539,0221,"Alberto Goštauto st.","link centro",54.69456,25.26747,https://www.stops.lt/vilnius/index.html#stop/0221,,
5248,0233,"Operos ir baleto teatras","link Žaliojo tilto",54.69081,25.27732,https://www.stops.lt/vilnius/index.html#stop/0233,,
5249,0232,"Operos ir baleto teatras","link Baltojo tilto",54.69123,25.27574,https://www.stops.lt/vilnius/index.html#stop/0232,,
474,0219,"Gedimino prospektas","link Pedagoginio žiedo",54.68909,25.26261,https://www.stops.lt/vilnius/index.html#stop/0219,,
5774,0220,"Gedimino prospektas","link Savanorių pr.",54.68894,25.26208,https://www.stops.lt/vilnius/index.html#stop/0220,,
5459,0207,"Jogailos st.","link centro",54.68526,25.27821,https://www.stops.lt/vilnius/index.html#stop/0207,,
5881,0218,"Jokūbo Jasinskio st.","link Senamiesčio",54.68812,25.26329,https://www.stops.lt/vilnius/index.html#stop/0218,,
5937,0217,"Jokūbo Jasinskio st.","link Žvėryno",54.68828,25.26352,https://www.stops.lt/vilnius/index.html#stop/0217,,
5936,0216,"Pamėnkalnio st.","link Žvėryno",54.68784,25.26659,https://www.stops.lt/vilnius/index.html#stop/0216,,
6736,0226,"Juozo Tumo-Vaižganto st.","link Žaliojo tilto",54.68958,25.26922,https://www.stops.lt/vilnius/index.html#stop/0226,,
5257,0224,"Kražių st.","link Gedimino pr.",54.69179,25.27091,https://www.stops.lt/vilnius/index.html#stop/0224,,
5258,0225,"Kražių st.","link Žaliojo tilto",54.69172,25.27116,https://www.stops.lt/vilnius/index.html#stop/0225,,
6356,0231,"Lukiškės","link Vašingtono a.",54.69090,25.27072,https://www.stops.lt/vilnius/index.html#stop/0231,,
7663,0236,"Lukiškės","link J.Tumo-Vaižganto g.",54.69037,25.27231,https://www.stops.lt/vilnius/index.html#stop/0236,,
5259,0223,"Vašingtono aikštė","šalia skvero",54.69160,25.26987,https://www.stops.lt/vilnius/index.html#stop/0223,,
5334,0212,"Islandijos st.","link Žvėryno",54.68500,25.27641,https://www.stops.lt/vilnius/index.html#stop/0212,,
5332,0215,"Pamėnkalnio st.","link Senamiesčio",54.68736,25.26934,https://www.stops.lt/vilnius/index.html#stop/0215,,
5338,0235,"Centro poliklinika","link stoties",54.68371,25.27701,https://www.stops.lt/vilnius/index.html#stop/0235,,
7238,0203,"Arkikatedra","link Gedimino pr.",54.68665,25.28644,https://www.stops.lt/vilnius/index.html#stop/0203,,
7245,0405,"Arkikatedra","link Mindaugo tilto",54.68667,25.28675,https://www.stops.lt/vilnius/index.html#stop/0405,,
5409,0211,"Vinco Kudirkos aikštė","link stoties",54.68871,25.27982,https://www.stops.lt/vilnius/index.html#stop/0211,,
5492,0210,"Vinco Kudirkos aikštė","link Žaliojo tilto",54.68753,25.27980,https://www.stops.lt/vilnius/index.html#stop/0210,,
5264,0214,"Juozo Tumo-Vaižganto st.","link Tauro kalno",54.68835,25.26799,https://www.stops.lt/vilnius/index.html#stop/0214,,
848,0201,"Karaliaus Mindaugo tiltas","link Žaliojo tilto",54.68858,25.28741,https://www.stops.lt/vilnius/index.html#stop/0201,,
6855,0202,"Karaliaus Mindaugo tiltas","iš centro",54.68867,25.28663,https://www.stops.lt/vilnius/index.html#stop/0202,,
10360,0227,"Gynėjų st.","link Pedagoginio žiedo",54.69349,25.26557,https://www.stops.lt/vilnius/index.html#stop/0227,,
16553,0238,"Nepriklausomybės aikštė","iš centro",54.69099,25.25993,https://www.stops.lt/vilnius/index.html#stop/0238,,
16772,0253,"Verslo trikampis","į centrą",54.68703,25.25946,https://www.stops.lt/vilnius/index.html#stop/0253,,
16773,0254,"Verslo trikampis","iš centro",54.68664,25.25903,https://www.stops.lt/vilnius/index.html#stop/0254,,
9004,0237,"Antano Tumėno st.","į centrą",54.69225,25.26124,https://www.stops.lt/vilnius/index.html#stop/0237,,
9007,0239,"Nepriklausomybės aikštė","link Žaliojo tilto",54.69118,25.26026,https://www.stops.lt/vilnius/index.html#stop/0239,,
3572,3104,"Daniliškės","į miestą",54.60105,25.13817,https://www.stops.lt/vilnius/index.html#stop/3104,,
16654,3116,"Degučių st.","link Pagirių",54.59214,25.15946,https://www.stops.lt/vilnius/index.html#stop/3116,,
16655,3117,"Degučių st.","link miesto",54.59250,25.15804,https://www.stops.lt/vilnius/index.html#stop/3117,,
16656,3118,"Jaunystės st.","link miesto",54.58863,25.16800,https://www.stops.lt/vilnius/index.html#stop/3118,,
16657,3119,"Jaunystės st.","iš miesto",54.58795,25.16923,https://www.stops.lt/vilnius/index.html#stop/3119,,
16751,3121,"Medkirčių st.","link miesto",54.59454,25.15251,https://www.stops.lt/vilnius/index.html#stop/3121,,
16752,3122,"Medkirčių st.","iš miesto",54.59427,25.15290,https://www.stops.lt/vilnius/index.html#stop/3122,,
16753,3124,"Vaidotų piliakalnis","iš miesto",54.58300,25.17922,https://www.stops.lt/vilnius/index.html#stop/3124,,
16754,3123,"Vaidotų piliakalnis","link miesto",54.58346,25.17902,https://www.stops.lt/vilnius/index.html#stop/3123,,
16658,3120,"Daniliškės","iš miesto",54.60088,25.13766,https://www.stops.lt/vilnius/index.html#stop/3120,,
17153,2285,"Didieji Gulbinai","iš miesto",54.80316,25.29658,https://www.stops.lt/vilnius/index.html#stop/2285,,
17150,2282,"Padvarės st.","iš miesto",54.79746,25.29563,https://www.stops.lt/vilnius/index.html#stop/2282,,
17152,2284,"Padvarės st.","į miestą",54.79725,25.29527,https://www.stops.lt/vilnius/index.html#stop/2284,,
17040,2279,"Pijų st.","iš miesto",54.79490,25.29333,https://www.stops.lt/vilnius/index.html#stop/2279,,
17041,2280,"Pijų st.","į centrą",54.79480,25.29300,https://www.stops.lt/vilnius/index.html#stop/2280,,
6179,1012,"Lazerių st.","visos kryptys",54.72949,25.37465,https://www.stops.lt/vilnius/index.html#stop/1012,,
6180,1013,"Lazerių st.","link miesto",54.72956,25.37489,https://www.stops.lt/vilnius/index.html#stop/1013,,
456,4602,"Galgiai","link miesto",54.72031,25.41133,https://www.stops.lt/vilnius/index.html#stop/4602,,
6895,3528,"Gvazdikų st.","iš miesto",54.74315,25.39835,https://www.stops.lt/vilnius/index.html#stop/3528,,
6896,3527,"Gvazdikų st.","link miesto",54.74366,25.39804,https://www.stops.lt/vilnius/index.html#stop/3527,,
6190,1018,"Lubinų st.","link mieto",54.72976,25.41224,https://www.stops.lt/vilnius/index.html#stop/1018,,
6191,1024,"Lubinų st.","iš miesto",54.72872,25.41181,https://www.stops.lt/vilnius/index.html#stop/1024,,
6188,1016,"Paliuliškės","link miesto",54.73365,25.41033,https://www.stops.lt/vilnius/index.html#stop/1016,,
6189,1017,"Paliuliškės","iš miesto",54.73289,25.41104,https://www.stops.lt/vilnius/index.html#stop/1017,,
6192,1025,"Purienų st.","iš miesto",54.72488,25.41200,https://www.stops.lt/vilnius/index.html#stop/1025,,
6193,4601,"Purienų st.","link miesto",54.72487,25.41211,https://www.stops.lt/vilnius/index.html#stop/4601,,
429,1011,"Dvarčionys","link miesto",54.72972,25.37052,https://www.stops.lt/vilnius/index.html#stop/1011,,
6181,1026,"Dvarčionys","iš miesto",54.72986,25.37033,https://www.stops.lt/vilnius/index.html#stop/1026,,
6173,3523,"Aukštagiris","link miesto",54.73049,25.35577,https://www.stops.lt/vilnius/index.html#stop/3523,,
6174,1008,"Aukštagiris","iš miesto",54.73057,25.35661,https://www.stops.lt/vilnius/index.html#stop/1008,,
6183,1014,"Baniškės","iš miesto",54.73453,25.38833,https://www.stops.lt/vilnius/index.html#stop/1014,,
6184,3525,"Baniškės","link miesto",54.73451,25.38710,https://www.stops.lt/vilnius/index.html#stop/3525,,
6176,1009,"Dvarčionių kryžkelė","iš miesto",54.73347,25.37073,https://www.stops.lt/vilnius/index.html#stop/1009,,
6177,3524,"Dvarčionių kryžkelė","link miesto",54.73344,25.36972,https://www.stops.lt/vilnius/index.html#stop/3524,,
6170,1007,"Plytinės st.","iš miesto",54.72791,25.34778,https://www.stops.lt/vilnius/index.html#stop/1007,,
6171,1006,"Plytinės st.","link miesto",54.72762,25.34671,https://www.stops.lt/vilnius/index.html#stop/1006,,
900,1005,"Senoji plytinė","iš miesto",54.72416,25.34075,https://www.stops.lt/vilnius/index.html#stop/1005,,
6239,1004,"Senoji plytinė","link miesto",54.72403,25.33967,https://www.stops.lt/vilnius/index.html#stop/1004,,
6898,3529,"Žemoji Veržuva","link miesto",54.75002,25.40124,https://www.stops.lt/vilnius/index.html#stop/3529,,
6899,3530,"Žemoji Veržuva","iš miesto",54.75002,25.40151,https://www.stops.lt/vilnius/index.html#stop/3530,,
8250,1027,"Lazerių st.","iš miesto",54.72937,25.37476,https://www.stops.lt/vilnius/index.html#stop/1027,,
16305,1015,"Kairėnai","iš miesto",54.73646,25.40379,https://www.stops.lt/vilnius/index.html#stop/1015,,
10545,1040,"Moliakalnio st.","link miesto",54.71583,25.35519,https://www.stops.lt/vilnius/index.html#stop/1040,,
10548,1042,"Moliakalnio st.","iš miesto",54.71578,25.35526,https://www.stops.lt/vilnius/index.html#stop/1042,,
10609,1043,"Pylimėliai","link miesto",54.71888,25.35994,https://www.stops.lt/vilnius/index.html#stop/1043,,
10611,1045,"Pylimėliai","iš miesto",54.71845,25.35947,https://www.stops.lt/vilnius/index.html#stop/1045,,
16306,3526,"Kairėnai","link miesto",54.73664,25.40210,https://www.stops.lt/vilnius/index.html#stop/3526,,
10537,1032,"Juodvarnių st.","link miesto",54.72255,25.37632,https://www.stops.lt/vilnius/index.html#stop/1032,,
10538,1033,"Juodvarnių st.","iš miesto",54.72228,25.37637,https://www.stops.lt/vilnius/index.html#stop/1033,,
8376,1004a,"Senoji plytinė","išlaipinimas",54.72461,25.34055,https://www.stops.lt/vilnius/index.html#stop/1004a,,
10539,1034,"Stanislovo Kerbedžio st.","link miesto",54.72065,25.37415,https://www.stops.lt/vilnius/index.html#stop/1034,,
10541,1036,"Stanislovo Kerbedžio st.","iš miesto",54.72063,25.37309,https://www.stops.lt/vilnius/index.html#stop/1036,,
10543,1038,"Stepono Kairio st.","link miesto",54.72085,25.37036,https://www.stops.lt/vilnius/index.html#stop/1038,,
10544,1039,"Stepono Kairio st.","iš miesto",54.72081,25.36923,https://www.stops.lt/vilnius/index.html#stop/1039,,
9925,3561,"Vinciūniškės","link miesto",54.75910,25.39505,https://www.stops.lt/vilnius/index.html#stop/3561,,
17194,3648,"Gelūžės st.","iš centro",54.70048,25.16032,https://www.stops.lt/vilnius/index.html#stop/3648,,
17196,3650,"Gelūžės st.","į centrą",54.69994,25.16150,https://www.stops.lt/vilnius/index.html#stop/3650,,
17124,3640,"Pakrantės st.","į centrą",54.69840,25.17182,https://www.stops.lt/vilnius/index.html#stop/3640,,
17186,3644,"Pakrantės st.","iš centro",54.69844,25.17185,https://www.stops.lt/vilnius/index.html#stop/3644,,
17190,3646,"Trakėnų st.","iš centro",54.69881,25.16742,https://www.stops.lt/vilnius/index.html#stop/3646,,
17191,3647,"Trakėnų st.","į centrą",54.69893,25.16645,https://www.stops.lt/vilnius/index.html#stop/3647,,
5807,3817,"Antano Jonyno st.","link Kalvarijų g.",54.73137,25.24744,https://www.stops.lt/vilnius/index.html#stop/3817,,
5808,3818,"Antano Jonyno st.","link Fabijoniškių g.",54.73156,25.24893,https://www.stops.lt/vilnius/index.html#stop/3818,,
5804,5159,"Kaimelio st.","link S.Stanevičiaus g.",54.73066,25.24621,https://www.stops.lt/vilnius/index.html#stop/5159,,
5810,3822,"Liongino Baliukevičiaus - Dzūko st.","link Geležinio Vilko g.",54.73376,25.25421,https://www.stops.lt/vilnius/index.html#stop/3822,,
5812,3819,"Liongino Baliukevičiaus - Dzūko st.","link Ukmergės g",54.73329,25.25210,https://www.stops.lt/vilnius/index.html#stop/3819,,
5814,3823,"Mykolo Romerio universitetas","link Ukmergės g.",54.73517,25.25795,https://www.stops.lt/vilnius/index.html#stop/3823,,
5815,2001,"Mykolo Romerio universitetas","link centro",54.73531,25.25976,https://www.stops.lt/vilnius/index.html#stop/2001,,
5803,3813,"Kaimelio žiedas","link Ateities g.",54.73160,25.24446,https://www.stops.lt/vilnius/index.html#stop/3813,,
5511,3809,"Fabijoniškių žiedas","link centro",54.73933,25.24044,https://www.stops.lt/vilnius/index.html#stop/3809,,
5515,3806,"Gedvydžių st.","link centro",54.73634,25.23730,https://www.stops.lt/vilnius/index.html#stop/3806,,
5516,3807,"Gedvydžių st.","iš centro",54.73702,25.23822,https://www.stops.lt/vilnius/index.html#stop/3807,,
1158,3810,"Fabijoniškių žiedas","link centro",54.73906,25.24147,https://www.stops.lt/vilnius/index.html#stop/3810,,
5512,3811,"Fabijoniškių žiedas","išlaipinimas",54.74009,25.24062,https://www.stops.lt/vilnius/index.html#stop/3811,,
5811,3820,"Liongino Baliukevičiaus - Dzūko st.","link Ukmergės g.",54.73400,25.25311,https://www.stops.lt/vilnius/index.html#stop/3820,,
6913,3816,"Pijaus Žadeikos st.","link Ateities g.",54.73504,25.24753,https://www.stops.lt/vilnius/index.html#stop/3816,,
6915,3831,"Pijaus Žadeikos st.","link Gedvydžių g.",54.73552,25.24623,https://www.stops.lt/vilnius/index.html#stop/3831,,
6914,3815,"Pijaus Žadeikos st.","link Ukmergės g.",54.73490,25.24626,https://www.stops.lt/vilnius/index.html#stop/3815,,
6763,3812,"Sporto gimnazija","link Ukmergės g.",54.73161,25.24241,https://www.stops.lt/vilnius/index.html#stop/3812,,
6911,3814,"Sporto gimnazija","link Fabijoniškių g.",54.73299,25.24470,https://www.stops.lt/vilnius/index.html#stop/3814,,
7811,3835,"Liudviko Zamenhofo st.","iš centro",54.74106,25.22889,https://www.stops.lt/vilnius/index.html#stop/3835,,
5518,3803,"Takas","link centro",54.73296,25.23689,https://www.stops.lt/vilnius/index.html#stop/3803,,
5519,3804,"Takas","iš centro",54.73416,25.23594,https://www.stops.lt/vilnius/index.html#stop/3804,,
7809,3833,"Vėtrungių st.","link centro",54.73729,25.23245,https://www.stops.lt/vilnius/index.html#stop/3833,,
7810,3834,"Vėtrungių st.","iš centro",54.73817,25.23175,https://www.stops.lt/vilnius/index.html#stop/3834,,
6924,3829,"Jovaro st.","link centro",54.72287,25.25407,https://www.stops.lt/vilnius/index.html#stop/3829,,
6926,3828,"Jovaro st.","iš centro",54.72384,25.25396,https://www.stops.lt/vilnius/index.html#stop/3828,,
5813,3821,"Liongino Baliukevičiaus - Dzūko st.","link centro",54.73313,25.25369,https://www.stops.lt/vilnius/index.html#stop/3821,,
6917,3825,"Pamiškė","link centro",54.72958,25.25452,https://www.stops.lt/vilnius/index.html#stop/3825,,
6918,3824,"Pamiškė","iš centro",54.73041,25.25490,https://www.stops.lt/vilnius/index.html#stop/3824,,
6921,3827,"Simono Stanevičiaus st.","link centro",54.72520,25.25372,https://www.stops.lt/vilnius/index.html#stop/3827,,
6922,3826,"Simono Stanevičiaus st.","iš centro",54.72610,25.25418,https://www.stops.lt/vilnius/index.html#stop/3826,,
446,3802,"Fabijoniškės","iš centro",54.73145,25.23739,https://www.stops.lt/vilnius/index.html#stop/3802,,
481,3805,"Gedvydžių st.","iš centro",54.73463,25.23419,https://www.stops.lt/vilnius/index.html#stop/3805,,
5443,3322,"Gedvydžių st.","link centro",54.73413,25.23420,https://www.stops.lt/vilnius/index.html#stop/3322,,
4388,3832,"Igno Šeiniaus st.","iš centro",54.72146,25.24426,https://www.stops.lt/vilnius/index.html#stop/3832,,
5451,3325,"Igno Šeiniaus st.","link centro",54.72179,25.24353,https://www.stops.lt/vilnius/index.html#stop/3325,,
823,3801,"Stasio Lozoraičio st.","iš centro",54.72440,25.24251,https://www.stops.lt/vilnius/index.html#stop/3801,,
5450,3323,"Stasio Lozoraičio st.","link centro",54.72401,25.24241,https://www.stops.lt/vilnius/index.html#stop/3323,,
8269,3839,"Kaimelio st.","iš centro",54.73059,25.24448,https://www.stops.lt/vilnius/index.html#stop/3839,,
17869,2026,"Mamerto Indriliūno st.","link Bajorų",54.74768,25.24472,https://www.stops.lt/vilnius/index.html#stop/2026,,
8270,3840,"Kaimelio žiedas","iš centro",54.73155,25.24488,https://www.stops.lt/vilnius/index.html#stop/3840,,
17867,2025,"Mamerto Indriliūno st.","link Ateities g.",54.74709,25.24589,https://www.stops.lt/vilnius/index.html#stop/2025,,
9152,3331,"Perkūno st.","iš centro",54.73936,25.22774,https://www.stops.lt/vilnius/index.html#stop/3331,,
17871,2027,"Mykolo Sleževičiaus st.","link Ateities g.",54.73889,25.25557,https://www.stops.lt/vilnius/index.html#stop/2027,,
17872,2028,"Mykolo Sleževičiaus st.","link Bajorų",54.73863,25.25718,https://www.stops.lt/vilnius/index.html#stop/2028,,
17862,2020,"Prano Vaičaičio st.","link Ateities g.",54.74077,25.25086,https://www.stops.lt/vilnius/index.html#stop/2020,,
17863,2021,"Prano Vaičaičio st.","link Bajorų",54.74074,25.25118,https://www.stops.lt/vilnius/index.html#stop/2021,,
17865,2023,"Visorių sodai","link Ateities g.",54.74565,25.25082,https://www.stops.lt/vilnius/index.html#stop/2023,,
17866,2024,"Visorių sodai","link Bajorų",54.74482,25.25071,https://www.stops.lt/vilnius/index.html#stop/2024,,
6198,4604,"Vakario st.","link miesto",54.71454,25.41260,https://www.stops.lt/vilnius/index.html#stop/4604,,
17268,1062,"Šv.Jono Bosko gimnazija","galinė st.",54.71652,25.42595,https://www.stops.lt/vilnius/index.html#stop/1062,,
17263,1058,"Centrinė st.","iš centro",54.71276,25.41542,https://www.stops.lt/vilnius/index.html#stop/1058,,
17265,1060,"Centrinė st.","į centrą",54.71277,25.41509,https://www.stops.lt/vilnius/index.html#stop/1060,,
17270,1063,"Egliškės","į miestą",54.71739,25.42249,https://www.stops.lt/vilnius/index.html#stop/1063,,
17272,1065,"Egliškės","iš centro",54.71771,25.42313,https://www.stops.lt/vilnius/index.html#stop/1065,,
18565,1061,"Spalio st.","link miesto",54.71449,25.41840,https://www.stops.lt/vilnius/index.html#stop/1061,,
18566,1059,"Spalio st.","iš miesto",54.71472,25.41890,https://www.stops.lt/vilnius/index.html#stop/1059,,
5742,2910,"Galvės st.","link Kirtimų g.",54.63274,25.15080,https://www.stops.lt/vilnius/index.html#stop/2910,,
5731,2904,"Lentvario st.","link Savanorių pr.",54.63874,25.17833,https://www.stops.lt/vilnius/index.html#stop/2904,,
5732,2905,"Lentvario st.","link A.Panerių",54.63836,25.17726,https://www.stops.lt/vilnius/index.html#stop/2905,,
7055,2941,"Stasylų st.","link Ž. Panerių",54.62871,25.13342,https://www.stops.lt/vilnius/index.html#stop/2941,,
7056,2940,"Stasylų st.","link Trakų Vokės",54.62829,25.13073,https://www.stops.lt/vilnius/index.html#stop/2940,,
4410,2937,"Vilijos st.","link Savanorių pr.",54.63595,25.17316,https://www.stops.lt/vilnius/index.html#stop/2937,,
5738,2938,"Vilijos st.","link Kirtimų g.",54.63557,25.17174,https://www.stops.lt/vilnius/index.html#stop/2938,,
5728,2903,"Fizikos institutas","visos kryptys",54.64212,25.18254,https://www.stops.lt/vilnius/index.html#stop/2903,,
6297,2927,"Gariūnai","link Savanorių pr.",54.65892,25.15913,https://www.stops.lt/vilnius/index.html#stop/2927,,
6609,2928,"Gariūnai","link Lazdynų",54.65908,25.16073,https://www.stops.lt/vilnius/index.html#stop/2928,,
6309,2933,"Vandenvala","link Gariūnų",54.66539,25.17311,https://www.stops.lt/vilnius/index.html#stop/2933,,
6310,2934,"Vandenvala","link Lazdynų",54.66534,25.17380,https://www.stops.lt/vilnius/index.html#stop/2934,,
7730,2932,"Elektrinės st.","link Gariūnų",54.66746,25.16205,https://www.stops.lt/vilnius/index.html#stop/2932,,
7731,2944,"Elektrinės st.","iš Gariūnų",54.66774,25.16234,https://www.stops.lt/vilnius/index.html#stop/2944,,
6300,2930,"Jočionys","link Gariūnų",54.66413,25.16171,https://www.stops.lt/vilnius/index.html#stop/2930,,
6301,2931,"Jočionys","link TE-3",54.66474,25.16189,https://www.stops.lt/vilnius/index.html#stop/2931,,
6294,2925,"Kauno plentas","link Kirtimų g.",54.65524,25.15088,https://www.stops.lt/vilnius/index.html#stop/2925,,
6295,2924,"Kauno plentas","link Gariūnų",54.65424,25.15088,https://www.stops.lt/vilnius/index.html#stop/2924,,
6290,2922,"Kulokiškės","iš miesto",54.64564,25.14227,https://www.stops.lt/vilnius/index.html#stop/2922,,
6291,2923,"Kulokiškės","link miesto",54.64538,25.14395,https://www.stops.lt/vilnius/index.html#stop/2923,,
6282,2936,"Liudvinava","link Mūrinės Vokės",54.64716,25.12816,https://www.stops.lt/vilnius/index.html#stop/2936,,
6283,2935,"Liudvinava","link Kirtimų g.",54.64705,25.12837,https://www.stops.lt/vilnius/index.html#stop/2935,,
6286,3901,"Mūrinė Vokė","visos kryptys",54.64828,25.12176,https://www.stops.lt/vilnius/index.html#stop/3901,,
6296,2926,"Gariūnai","link TE-3",54.65999,25.16061,https://www.stops.lt/vilnius/index.html#stop/2926,,
4455,2939,"Prekybos bazė","visos kryptys",54.65806,25.13807,https://www.stops.lt/vilnius/index.html#stop/2939,,
5564,2901,"Valkininkų st.","link Savanorių pr.",54.64395,25.19972,https://www.stops.lt/vilnius/index.html#stop/2901,,
357,2906,"Aukštieji Paneriai","link Savanorių pr.",54.63135,25.17403,https://www.stops.lt/vilnius/index.html#stop/2906,,
6278,2920,"Asfalto st.","link Lentvario g.",54.64480,25.13449,https://www.stops.lt/vilnius/index.html#stop/2920,,
6279,2921,"Asfalto st.","link Galvės g.",54.64519,25.13463,https://www.stops.lt/vilnius/index.html#stop/2921,,
6276,2919,"Liudvinavo st.","link Galvės g.",54.64015,25.13522,https://www.stops.lt/vilnius/index.html#stop/2919,,
6277,2918,"Liudvinavo st.","link Lentvario g.",54.64067,25.13522,https://www.stops.lt/vilnius/index.html#stop/2918,,
6273,2917,"Šešėlių st.","link Galvės g.",54.63715,25.13563,https://www.stops.lt/vilnius/index.html#stop/2917,,
6274,2916,"Šešėlių st.","link Lentvario g.",54.63760,25.13566,https://www.stops.lt/vilnius/index.html#stop/2916,,
6270,2914,"Žarijų st.","link Liudvinavo",54.63239,25.14007,https://www.stops.lt/vilnius/index.html#stop/2914,,
6271,2915,"Žarijų st.","link Galvės g.",54.63223,25.14053,https://www.stops.lt/vilnius/index.html#stop/2915,,
9776,2908,"Galvės st.","link Savanorių pr.",54.63247,25.15096,https://www.stops.lt/vilnius/index.html#stop/2908,,
9626,3911,"Mūrinė Vokė","visos kryptys",54.64838,25.12157,https://www.stops.lt/vilnius/index.html#stop/3911,,
9627,3912,"Stasio Krasausko st.","iš miesto",54.64433,25.09079,https://www.stops.lt/vilnius/index.html#stop/3912,,
9628,3913,"Stasio Krasausko st.","link miesto",54.64446,25.09120,https://www.stops.lt/vilnius/index.html#stop/3913,,
8784,2945,"Aukštieji Paneriai","link Kirtimų g.",54.63126,25.17376,https://www.stops.lt/vilnius/index.html#stop/2945,,
4479,4407,"Naujosios Gineitiškės","link Antežerių",54.73597,25.20137,https://www.stops.lt/vilnius/index.html#stop/4407,,
7395,4411,"Naujosios Gineitiškės","link Pašilaičių",54.73583,25.20239,https://www.stops.lt/vilnius/index.html#stop/4411,,
6032,5160,"Grigaičiai","link Grigaičių",54.68095,25.41305,https://www.stops.lt/vilnius/index.html#stop/5160,,
4965,5163,"Grigaičių žiedas","visos kryptys",54.66430,25.41555,https://www.stops.lt/vilnius/index.html#stop/5163,,
6029,5161,"Jaunimo st.","iš N.Vilnios",54.66994,25.41217,https://www.stops.lt/vilnius/index.html#stop/5161,,
6030,5162,"Jaunimo st.","link N.Vilnios",54.66979,25.41227,https://www.stops.lt/vilnius/index.html#stop/5162,,
7356,5194,"Karklėnai","link Grigaičių",54.67551,25.41435,https://www.stops.lt/vilnius/index.html#stop/5194,,
7357,5195,"Karklėnai","link N.Vilnios",54.67511,25.41440,https://www.stops.lt/vilnius/index.html#stop/5195,,
6603,4102,"Kunigiškių st.","iš centro",54.67057,25.09277,https://www.stops.lt/vilnius/index.html#stop/4102,,
4454,4120,"Salos","link centro",54.66862,25.10393,https://www.stops.lt/vilnius/index.html#stop/4120,,
6604,4119,"Šviesos st.","link centro",54.66959,25.09601,https://www.stops.lt/vilnius/index.html#stop/4119,,
15964,4121,"Kovo 11-osios st.","link centro",54.67450,25.08827,https://www.stops.lt/vilnius/index.html#stop/4121,,
16267,4127,"Kauno Vokės st.","link centro",54.68066,25.07473,https://www.stops.lt/vilnius/index.html#stop/4127,,
16268,4128,"Kauno Vokės st.","iš centro",54.68059,25.07504,https://www.stops.lt/vilnius/index.html#stop/4128,,
16263,4124,"Vokės sodai","link centro",54.68346,25.07075,https://www.stops.lt/vilnius/index.html#stop/4124,,
16266,4126,"Vokės sodai","iš centro",54.68403,25.07035,https://www.stops.lt/vilnius/index.html#stop/4126,,
8945,4107,"Kunigiškių st.","link centro",54.67045,25.09297,https://www.stops.lt/vilnius/index.html#stop/4107,,
9834,4104,"Salos","iš centro",54.66833,25.10068,https://www.stops.lt/vilnius/index.html#stop/4104,,
8944,4103,"Šviesos st.","iš centro",54.66945,25.09672,https://www.stops.lt/vilnius/index.html#stop/4103,,
9614,4114,"Grigiškių žiedas","visos kryptys",54.67362,25.08231,https://www.stops.lt/vilnius/index.html#stop/4114,,
9484,4112,"Kranto st.","iš centro",54.67349,25.08072,https://www.stops.lt/vilnius/index.html#stop/4112,,
9615,4115,"Kranto st.","link centro",54.67329,25.08022,https://www.stops.lt/vilnius/index.html#stop/4115,,
9485,4113,"Žalioji st.","iš centro",54.66999,25.07720,https://www.stops.lt/vilnius/index.html#stop/4113,,
9616,4116,"Žalioji st.","link centro",54.66959,25.07668,https://www.stops.lt/vilnius/index.html#stop/4116,,
9082,4105,"Grigiškių poliklinika","link centro",54.67194,25.08946,https://www.stops.lt/vilnius/index.html#stop/4105,,
16236,4123,"Grigiškių poliklinika","link centro",54.67278,25.09004,https://www.stops.lt/vilnius/index.html#stop/4123,,
9109,4106,"Neravų st.","iš centro",54.66864,25.11174,https://www.stops.lt/vilnius/index.html#stop/4106,,
15833,3917,"Jono Švažo st.","",54.64064,25.10896,https://www.stops.lt/vilnius/index.html#stop/3917,,
15837,3920,"Kaimynų st.","",54.63664,25.11077,https://www.stops.lt/vilnius/index.html#stop/3920,,
15829,3914,"Gureliai","",54.64672,25.11176,https://www.stops.lt/vilnius/index.html#stop/3914,,
15831,3915,"Gureliai","",54.64653,25.11180,https://www.stops.lt/vilnius/index.html#stop/3915,,
15835,3918,"Jono Švažo st.","",54.64019,25.10786,https://www.stops.lt/vilnius/index.html#stop/3918,,
9471,2723,"1-ieji Juodšiliai","link miesto",54.58541,25.24924,https://www.stops.lt/vilnius/index.html#stop/2723,,
9472,2724,"1-ieji Juodšiliai","iš miesto",54.58528,25.24828,https://www.stops.lt/vilnius/index.html#stop/2724,,
9571,2728,"2-ieji Juodšiliai","link Miškinių",54.58516,25.26040,https://www.stops.lt/vilnius/index.html#stop/2728,,
9572,2729,"2-ieji Juodšiliai","link Mickevičiaus g.",54.58501,25.26216,https://www.stops.lt/vilnius/index.html#stop/2729,,
5063,3209,"Justiniškės","iš centro",54.71754,25.22209,https://www.stops.lt/vilnius/index.html#stop/3209,,
6580,3211,"Justiniškės","link centro",54.71652,25.22085,https://www.stops.lt/vilnius/index.html#stop/3211,,
6581,3214,"Lūžiai","link centro",54.71080,25.21661,https://www.stops.lt/vilnius/index.html#stop/3214,,
6582,1804,"Lūžiai","link Pašilaičių",54.71164,25.21772,https://www.stops.lt/vilnius/index.html#stop/1804,,
542,3201,"Pumpėnų st.","link centro",54.72239,25.22192,https://www.stops.lt/vilnius/index.html#stop/3201,,
5060,3204,"Taikos st.","link centro",54.72060,25.22263,https://www.stops.lt/vilnius/index.html#stop/3204,,
5140,3202,"Taikos st.","iš centro",54.72159,25.22279,https://www.stops.lt/vilnius/index.html#stop/3202,,
7001,1801,"Justiniškės","link Laisvės pr.",54.71676,25.22203,https://www.stops.lt/vilnius/index.html#stop/1801,,
5137,3218,"Rygos st.","iš centro",54.71647,25.22962,https://www.stops.lt/vilnius/index.html#stop/3218,,
6995,3208,"Atžalyno st.","iš centro",54.71826,25.21413,https://www.stops.lt/vilnius/index.html#stop/3208,,
6996,3207,"Atžalyno st.","link centro",54.71929,25.21426,https://www.stops.lt/vilnius/index.html#stop/3207,,
6990,3216,"Justiniškių žiedas","įlaipinimas",54.70933,25.21334,https://www.stops.lt/vilnius/index.html#stop/3216,,
6998,3206,"Mykolo Biržiškos gimnazija","link centro",54.72133,25.21843,https://www.stops.lt/vilnius/index.html#stop/3206,,
6999,3205,"Mykolo Biržiškos gimnazija","iš centro",54.72153,25.21716,https://www.stops.lt/vilnius/index.html#stop/3205,,
6992,3213,"Šiaurinė st.","link žiedo",54.71497,25.21486,https://www.stops.lt/vilnius/index.html#stop/3213,,
6993,3212,"Šiaurinė st.","link Rygos g.",54.71554,25.21511,https://www.stops.lt/vilnius/index.html#stop/3212,,
7005,3203,"Taikos st.","iš centro",54.72126,25.22162,https://www.stops.lt/vilnius/index.html#stop/3203,,
16713,4019,"Airių st.","",54.65149,25.34953,https://www.stops.lt/vilnius/index.html#stop/4019,,
16715,4024,"Airių st.","",54.65204,25.34980,https://www.stops.lt/vilnius/index.html#stop/4024,,
16724,4025,"Savičiūnų st.","",54.65472,25.35366,https://www.stops.lt/vilnius/index.html#stop/4025,,
16725,4026,"Savičiūnų st.","",54.65450,25.35330,https://www.stops.lt/vilnius/index.html#stop/4026,,
9593,4016,"Kalnėnai","iš miesto",54.65460,25.33164,https://www.stops.lt/vilnius/index.html#stop/4016,,
9659,4020,"Kalnėnai","link miesto",54.65453,25.33125,https://www.stops.lt/vilnius/index.html#stop/4020,,
10614,4021,"Tautų st.","link miesto",54.65117,25.32442,https://www.stops.lt/vilnius/index.html#stop/4021,,
16920,4022,"Tautų st.","iš centro",54.65056,25.32347,https://www.stops.lt/vilnius/index.html#stop/4022,,
9599,4017,"Juodupio st.","",54.65318,25.34127,https://www.stops.lt/vilnius/index.html#stop/4017,,
9600,4018,"Juodupio st.","",54.65322,25.34072,https://www.stops.lt/vilnius/index.html#stop/4018,,
5651,1707,"Karoliniškės","link Lazdynų",54.69244,25.21631,https://www.stops.lt/vilnius/index.html#stop/1707,,
6649,1706,"Karoliniškės","link Viršuliškių",54.69279,25.21733,https://www.stops.lt/vilnius/index.html#stop/1706,,
5646,1703,"Laisvės prospektas","iš centro",54.69635,25.21992,https://www.stops.lt/vilnius/index.html#stop/1703,,
6643,1702,"Laisvės prospektas","link centro",54.69752,25.22123,https://www.stops.lt/vilnius/index.html#stop/1702,,
1004,1708,"Televizijos bokštas","link Viršuliškių",54.69092,25.21486,https://www.stops.lt/vilnius/index.html#stop/1708,,
5656,1709,"Televizijos bokštas","link Lazdynų",54.68996,25.21260,https://www.stops.lt/vilnius/index.html#stop/1709,,
1071,1714,"Vaivorykštės st.","link Viršuliškių",54.68519,25.20766,https://www.stops.lt/vilnius/index.html#stop/1714,,
5668,1715,"Vaivorykštės st.","link Lazdynų",54.68430,25.20695,https://www.stops.lt/vilnius/index.html#stop/1715,,
351,1712,"Atminties st.","link centro",54.68715,25.20713,https://www.stops.lt/vilnius/index.html#stop/1712,,
5920,1713,"Atminties st.","iš centro",54.68674,25.20650,https://www.stops.lt/vilnius/index.html#stop/1713,,
596,1705,"Karoliniškių poliklinika","link centro",54.69344,25.21524,https://www.stops.lt/vilnius/index.html#stop/1705,,
5915,1704,"Karoliniškių poliklinika","iš centro",54.69283,25.21416,https://www.stops.lt/vilnius/index.html#stop/1704,,
5923,1717,"Pasakų parkas","",54.68477,25.20559,https://www.stops.lt/vilnius/index.html#stop/1717,,
5924,1716,"Pasakų parkas","įlaipinimas",54.68461,25.20607,https://www.stops.lt/vilnius/index.html#stop/1716,,
5919,1711,"Ugniagesių st.","iš centro",54.68951,25.20904,https://www.stops.lt/vilnius/index.html#stop/1711,,
6400,1710,"Ugniagesių st.","link centro",54.69021,25.21068,https://www.stops.lt/vilnius/index.html#stop/1710,,
10130,1661,"Loretos Asanavičiūtės st.","link Žvėryno",54.68318,25.19942,https://www.stops.lt/vilnius/index.html#stop/1661,,
10131,1662,"Loretos Asanavičiūtės st.","link Ungurių žiedo",54.68332,25.19908,https://www.stops.lt/vilnius/index.html#stop/1662,,
8438,1716a,"Pasakų parkas","",54.68416,25.20606,https://www.stops.lt/vilnius/index.html#stop/1716a,,
5971,4326,"Kineliai","iš miesto",54.59737,25.31626,https://www.stops.lt/vilnius/index.html#stop/4326,,
5972,4325,"Kineliai","link miesto",54.59760,25.31564,https://www.stops.lt/vilnius/index.html#stop/4325,,
410,2608,"Dariaus ir Girėno st.","link centro",54.64755,25.27318,https://www.stops.lt/vilnius/index.html#stop/2608,,
5182,2607,"Dariaus ir Girėno st.","iš centro",54.64719,25.27313,https://www.stops.lt/vilnius/index.html#stop/2607,,
5180,2603,"Eišiškių plentas","iš centro",54.65129,25.27177,https://www.stops.lt/vilnius/index.html#stop/2603,,
5181,2604,"Eišiškių plentas","link centro",54.65148,25.27186,https://www.stops.lt/vilnius/index.html#stop/2604,,
5184,2612,"Felikso Vaitkaus st.","link centro",54.64352,25.27401,https://www.stops.lt/vilnius/index.html#stop/2612,,
588,2618,"Kirtimai","link centro",54.63684,25.27461,https://www.stops.lt/vilnius/index.html#stop/2618,,
5193,2619,"Kirtimai","iš centro",54.63748,25.27466,https://www.stops.lt/vilnius/index.html#stop/2619,,
690,2622,"Kirtimų geležinkelio stotis","įlaipinimas",54.62953,25.27220,https://www.stops.lt/vilnius/index.html#stop/2622,,
493,2620,"Tiekimo st.","link centro",54.63206,25.27312,https://www.stops.lt/vilnius/index.html#stop/2620,,
5194,2621,"Tiekimo st.","iš centro",54.63323,25.27323,https://www.stops.lt/vilnius/index.html#stop/2621,,
6961,2628,"Dilgynė","link centro",54.63435,25.25372,https://www.stops.lt/vilnius/index.html#stop/2628,,
5304,2601,"Eišiškių plentas","iš centro",54.64925,25.26784,https://www.stops.lt/vilnius/index.html#stop/2601,,
5305,2602,"Eišiškių plentas","link centro",54.64970,25.26853,https://www.stops.lt/vilnius/index.html#stop/2602,,
6947,2614,"Hidrogeologijos st.","link centro",54.64344,25.26321,https://www.stops.lt/vilnius/index.html#stop/2614,,
6948,2615,"Hidrogeologijos st.","iš centro",54.64295,25.26267,https://www.stops.lt/vilnius/index.html#stop/2615,,
5307,2606,"Metalo st.","link centro",54.64632,25.26573,https://www.stops.lt/vilnius/index.html#stop/2606,,
6949,2625,"Verslo st.","iš centro",54.63898,25.25882,https://www.stops.lt/vilnius/index.html#stop/2625,,
6950,2624,"Verslo st.","link centro",54.63933,25.25934,https://www.stops.lt/vilnius/index.html#stop/2624,,
5320,2626,"Verslo st.","nuo Eišiškių pl.",54.63701,25.25814,https://www.stops.lt/vilnius/index.html#stop/2626,,
5316,2639,"Meistrų st.","iš centro",54.63085,25.25945,https://www.stops.lt/vilnius/index.html#stop/2639,,
491,2616,"Geologų st.","link centro",54.63986,25.26679,https://www.stops.lt/vilnius/index.html#stop/2616,,
5313,2617,"Geologų st.","iš centro",54.63868,25.26684,https://www.stops.lt/vilnius/index.html#stop/2617,,
5315,2623,"Katilinė","iš centro",54.63486,25.26604,https://www.stops.lt/vilnius/index.html#stop/2623,,
5310,2609,"Metalo st.","iš centro",54.64556,25.26567,https://www.stops.lt/vilnius/index.html#stop/2609,,
5317,2640,"Pameistrių st.","iš centro",54.63078,25.26474,https://www.stops.lt/vilnius/index.html#stop/2640,,
5319,2627,"Elektros st.","iš centro",54.63399,25.25666,https://www.stops.lt/vilnius/index.html#stop/2627,,
4290,2641,"Paštas","išlaipinimas",54.63581,25.27655,https://www.stops.lt/vilnius/index.html#stop/2641,,
7817,2644,"Rodūnios kelias","iš centro",54.64160,25.27772,https://www.stops.lt/vilnius/index.html#stop/2644,,
7820,2645,"Rodūnios kelias","link centro",54.64221,25.27783,https://www.stops.lt/vilnius/index.html#stop/2645,,
8240,2611,"Felikso Vaitkaus st.","iš centro",54.64478,25.27357,https://www.stops.lt/vilnius/index.html#stop/2611,,
8347,2630,"Dilgynė","iš centro",54.63490,25.25412,https://www.stops.lt/vilnius/index.html#stop/2630,,
8339,2605,"Metalo st.","iš centro",54.64581,25.26501,https://www.stops.lt/vilnius/index.html#stop/2605,,
9729,2651,"Meistrų st.","link centro",54.63073,25.25939,https://www.stops.lt/vilnius/index.html#stop/2651,,
9730,2652,"Katilinė","link centro",54.63488,25.26621,https://www.stops.lt/vilnius/index.html#stop/2652,,
9731,2653,"Pameistrių st.","link centro",54.63079,25.26495,https://www.stops.lt/vilnius/index.html#stop/2653,,
9728,2650,"Elektros st.","link centro",54.63374,25.25639,https://www.stops.lt/vilnius/index.html#stop/2650,,
9276,2649,"Paštas","visos kryptys",54.63595,25.27704,https://www.stops.lt/vilnius/index.html#stop/2649,,
9226,2648,"Rodūnios sodų st.","link stoties",54.63249,25.27778,https://www.stops.lt/vilnius/index.html#stop/2648,,
17216,3656,"Gavaičių st.","į centrą",54.70471,25.14413,https://www.stops.lt/vilnius/index.html#stop/3656,,
17213,3655,"Kriaučiūnai","į centrą",54.71202,25.14936,https://www.stops.lt/vilnius/index.html#stop/3655,,
17203,3652,"Obeliškių st.","iš centro",54.70299,25.14734,https://www.stops.lt/vilnius/index.html#stop/3652,,
17205,3653,"Obeliškių st.","į centrą",54.70284,25.14757,https://www.stops.lt/vilnius/index.html#stop/3653,,
17208,3654,"Vienkiemių st.","iš centro",54.70294,25.14099,https://www.stops.lt/vilnius/index.html#stop/3654,,
7874,5178,"Kuprioniškės","link miesto",54.64104,25.33163,https://www.stops.lt/vilnius/index.html#stop/5178,,
616,4002,"Kinologijos centras","iš miesto",54.64878,25.32131,https://www.stops.lt/vilnius/index.html#stop/4002,,
9682,4355,"Vyturių st.","iš miesto",54.63744,25.32758,https://www.stops.lt/vilnius/index.html#stop/4355,,
329,1612,"Akacijų st.","link Laisvės pr.",54.67818,25.20273,https://www.stops.lt/vilnius/index.html#stop/1612,,
5672,1613,"Akacijų st.","link Erfurto g.",54.67792,25.20181,https://www.stops.lt/vilnius/index.html#stop/1613,,
5693,1619,"Architektų st.","link Laisvės pr.",54.67343,25.21451,https://www.stops.lt/vilnius/index.html#stop/1619,,
5694,1643,"Architektų st.","link Oslo g.",54.67313,25.21339,https://www.stops.lt/vilnius/index.html#stop/1643,,
5701,1606,"Ąžuolo st.","iš centro",54.67994,25.21765,https://www.stops.lt/vilnius/index.html#stop/1606,,
5702,1605,"Ąžuolo st.","link centro",54.67934,25.21701,https://www.stops.lt/vilnius/index.html#stop/1605,,
7350,5193,"Erfurto st.","link Karoliniškių",54.67448,25.20080,https://www.stops.lt/vilnius/index.html#stop/5193,,
4395,1646,"Paukščių takas","link centro",54.67980,25.20734,https://www.stops.lt/vilnius/index.html#stop/1646,,
5697,1620,"Riešutų st.","link Laisvės pr.",54.67653,25.21611,https://www.stops.lt/vilnius/index.html#stop/1620,,
5698,1645,"Riešutų st.","link Oslo g.",54.67600,25.21556,https://www.stops.lt/vilnius/index.html#stop/1645,,
5703,1607,"Ryto st.","link centro",54.68215,25.21371,https://www.stops.lt/vilnius/index.html#stop/1607,,
5704,1608,"Ryto st.","iš centro",54.68268,25.21309,https://www.stops.lt/vilnius/index.html#stop/1608,,
5691,1618,"Šalnos st.","link Laisvės pr.",54.67281,25.20703,https://www.stops.lt/vilnius/index.html#stop/1618,,
5692,1642,"Šalnos st.","link Oslo g.",54.67307,25.20607,https://www.stops.lt/vilnius/index.html#stop/1642,,
639,1634,"Bukčiai","į miestą",54.65501,25.19563,https://www.stops.lt/vilnius/index.html#stop/1634,,
6390,1633,"Neužmirštuolių st.","link Šiltnamių g.",54.65845,25.20379,https://www.stops.lt/vilnius/index.html#stop/1633,,
6391,1632,"Neužmirštuolių st.","link Bukčių",54.65818,25.20248,https://www.stops.lt/vilnius/index.html#stop/1632,,
6388,1648,"Ratilių st.","link Šiltnamių g.",54.66456,25.21403,https://www.stops.lt/vilnius/index.html#stop/1648,,
6389,1647,"Ratilių st.","link Bukčių",54.66525,25.21435,https://www.stops.lt/vilnius/index.html#stop/1647,,
7722,1649,"Užutekio st.","link žiedo",54.65918,25.20776,https://www.stops.lt/vilnius/index.html#stop/1649,,
7723,1650,"Užutekio st.","link Žvėryno",54.65907,25.20740,https://www.stops.lt/vilnius/index.html#stop/1650,,
437,1617,"Erfurto st.","link Laisvės pr.",54.67363,25.20114,https://www.stops.lt/vilnius/index.html#stop/1617,,
7341,5189,"Erfurto st.","iš centro",54.67357,25.20062,https://www.stops.lt/vilnius/index.html#stop/5189,,
6317,1640,"Lazdynai","link Laisvės pr.",54.67761,25.21259,https://www.stops.lt/vilnius/index.html#stop/1640,,
6318,1611,"Lazdynai","link baseino",54.67778,25.21233,https://www.stops.lt/vilnius/index.html#stop/1611,,
783,1615,"Lazdynų seniūnija","link Laisvės pr.",54.67520,25.20412,https://www.stops.lt/vilnius/index.html#stop/1615,,
6320,1616,"Lazdynų seniūnija","link Oslo g.",54.67473,25.20258,https://www.stops.lt/vilnius/index.html#stop/1616,,
756,1622,"Oslo st.","link Laisvės pr.",54.67016,25.19759,https://www.stops.lt/vilnius/index.html#stop/1622,,
3589,1641,"Žėručio st.","link Laisvės pr.",54.67661,25.20840,https://www.stops.lt/vilnius/index.html#stop/1641,,
6319,1614,"Žėručio st.","link Oslo g.",54.67642,25.20696,https://www.stops.lt/vilnius/index.html#stop/1614,,
6337,2401,"Eigulių st.","link centro",54.66900,25.23547,https://www.stops.lt/vilnius/index.html#stop/2401,,
6338,0608,"Eigulių st.","iš centro",54.66935,25.23571,https://www.stops.lt/vilnius/index.html#stop/0608,,
6461,1609,"Lazdynai","link centro",54.67891,25.21331,https://www.stops.lt/vilnius/index.html#stop/1609,,
6648,1610,"Lazdynai","iš centro",54.67926,25.21329,https://www.stops.lt/vilnius/index.html#stop/1610,,
790,1603,"LITEXPO","iš centro",54.67561,25.22250,https://www.stops.lt/vilnius/index.html#stop/1603,,
6333,1604,"LITEXPO","link centro",54.67577,25.22186,https://www.stops.lt/vilnius/index.html#stop/1604,,
720,1601,"Miškiniai","iš centro",54.67119,25.22725,https://www.stops.lt/vilnius/index.html#stop/1601,,
721,1602,"Miškiniai","link centro",54.67093,25.22641,https://www.stops.lt/vilnius/index.html#stop/1602,,
6460,1636,"Paukščių takas","link centro",54.68065,25.20884,https://www.stops.lt/vilnius/index.html#stop/1636,,
6462,1635,"Paukščių takas","iš centro",54.68085,25.20922,https://www.stops.lt/vilnius/index.html#stop/1635,,
7560,1623,"Oslo st.","link Lazdynėlių",54.66953,25.19796,https://www.stops.lt/vilnius/index.html#stop/1623,,
6350,1626,"Lazdynų ligoninė","link centro",54.67031,25.20903,https://www.stops.lt/vilnius/index.html#stop/1626,,
6351,1624,"Lazdynų ligoninė","iš centro",54.67050,25.20809,https://www.stops.lt/vilnius/index.html#stop/1624,,
6352,1629,"Šiltnamių st.","link centro",54.67091,25.21492,https://www.stops.lt/vilnius/index.html#stop/1629,,
6353,1628,"Šiltnamių st.","iš centro",54.67106,25.21418,https://www.stops.lt/vilnius/index.html#stop/1628,,
6379,1627,"Jonažolių st.","link Bukčių",54.66985,25.20846,https://www.stops.lt/vilnius/index.html#stop/1627,,
6381,1625,"Jonažolių st.","link Oslo g.",54.66997,25.20740,https://www.stops.lt/vilnius/index.html#stop/1625,,
4945,5158,"Lazdynų ligoninė","visos kryptys",54.66907,25.20662,https://www.stops.lt/vilnius/index.html#stop/5158,,
6401,1653,"Oslo st.","link Bukčių",54.67007,25.19877,https://www.stops.lt/vilnius/index.html#stop/1653,,
6387,1630,"Pakalnučių st.","link Oslo g.",54.66911,25.21298,https://www.stops.lt/vilnius/index.html#stop/1630,,
16703,1667,"Paukščių takas","iš centro",54.67972,25.20699,https://www.stops.lt/vilnius/index.html#stop/1667,,
8328,1651,"Bijūnų st.","link Žvėryno",54.66729,25.21606,https://www.stops.lt/vilnius/index.html#stop/1651,,
9635,1655,"Gudeliai","link Žvėryno",54.67585,25.19278,https://www.stops.lt/vilnius/index.html#stop/1655,,
9636,1656,"Gudeliai","link žiedo",54.67558,25.19308,https://www.stops.lt/vilnius/index.html#stop/1656,,
16622,1652,"Lazdynėliai","įlaipinimas",54.66261,25.19196,https://www.stops.lt/vilnius/index.html#stop/1652,,
9466,1654,"Monikos Mironaitės st.","link Žvėryno",54.68081,25.18967,https://www.stops.lt/vilnius/index.html#stop/1654,,
9961,1657,"Monikos Mironaitės st.","link Ungurių žiedo",54.68083,25.18950,https://www.stops.lt/vilnius/index.html#stop/1657,,
9966,1660,"Bijūnų st.","link žiedo",54.66748,25.21675,https://www.stops.lt/vilnius/index.html#stop/1660,,
11049,1665,"Lazdynų ligoninė","iš centro",54.66900,25.20914,https://www.stops.lt/vilnius/index.html#stop/1665,,
9965,1659,"Šiltnamių žiedas","įlaipinimas",54.66708,25.22145,https://www.stops.lt/vilnius/index.html#stop/1659,,
10264,1663,"Ungurių st.","įlaipinimas",54.65354,25.20851,https://www.stops.lt/vilnius/index.html#stop/1663,,
16903,3006,"Lentvaris","link Grigiškių",54.64554,25.04896,https://www.stops.lt/vilnius/index.html#stop/3006,,
9685,3000,"Kilimų fabrikas","link Grigiškių",54.65364,25.04649,https://www.stops.lt/vilnius/index.html#stop/3000,,
9690,3004,"Kilimų fabrikas","link miesto",54.65519,25.04569,https://www.stops.lt/vilnius/index.html#stop/3004,,
16879,3921,"Mačiuliškių st.","iš centro",54.64386,25.07848,https://www.stops.lt/vilnius/index.html#stop/3921,,
16880,3922,"Mačiuliškių st.","link centro",54.64365,25.08055,https://www.stops.lt/vilnius/index.html#stop/3922,,
9692,3907,"1-asis Lentvaris","link miesto",54.64427,25.06487,https://www.stops.lt/vilnius/index.html#stop/3907,,
9618,3003,"Lentvaris","link miesto",54.64505,25.05501,https://www.stops.lt/vilnius/index.html#stop/3003,,
17320,3007,"Lentvaris","",54.64513,25.05360,https://www.stops.lt/vilnius/index.html#stop/3007,,
9686,3001,"Naujasis Lentvaris","link Grigiškių",54.65800,25.05965,https://www.stops.lt/vilnius/index.html#stop/3001,,
9688,3002,"Naujasis Lentvaris","link miesto",54.65801,25.05934,https://www.stops.lt/vilnius/index.html#stop/3002,,
9689,3005,"Vandenų st.","link miesto",54.65804,25.04874,https://www.stops.lt/vilnius/index.html#stop/3005,,
5966,4011,"Basiukai","link centro",54.61206,25.31046,https://www.stops.lt/vilnius/index.html#stop/4011,,
5967,4012,"Basiukai","iš centro",54.61052,25.31098,https://www.stops.lt/vilnius/index.html#stop/4012,,
5969,4013,"Katiliškės","link centro",54.60612,25.31308,https://www.stops.lt/vilnius/index.html#stop/4013,,
5955,2633,"Kelininkų st.","iš centro",54.64917,25.30266,https://www.stops.lt/vilnius/index.html#stop/2633,,
5996,4003,"Kelininkų st.","link centro",54.65048,25.30308,https://www.stops.lt/vilnius/index.html#stop/4003,,
646,4015,"Lydos st.","link centro",54.62535,25.30561,https://www.stops.lt/vilnius/index.html#stop/4015,,
5960,2636,"Lydos st.","iš centro",54.62522,25.30547,https://www.stops.lt/vilnius/index.html#stop/2636,,
5958,2635,"Miško parkas","iš centro",54.63671,25.30307,https://www.stops.lt/vilnius/index.html#stop/2635,,
5995,4005,"Miško parkas","link centro",54.63609,25.30331,https://www.stops.lt/vilnius/index.html#stop/4005,,
5956,2634,"Šalčininkų kryptis","iš centro",54.64398,25.30273,https://www.stops.lt/vilnius/index.html#stop/2634,,
5957,4004,"Šalčininkų kryptis","link centro",54.64484,25.30285,https://www.stops.lt/vilnius/index.html#stop/4004,,
5964,4010,"Svirno st.","iš centro",54.61725,25.30824,https://www.stops.lt/vilnius/index.html#stop/4010,,
5965,4009,"Svirno st.","link centro",54.61865,25.30796,https://www.stops.lt/vilnius/index.html#stop/4009,,
5953,2632,"Žirnių st.","iš stoties",54.65307,25.30270,https://www.stops.lt/vilnius/index.html#stop/2632,,
17222,4014,"Katiliškės","iš centro",54.60587,25.31291,https://www.stops.lt/vilnius/index.html#stop/4014,,
16977,4001,"Žirnių st.","iš stoties",54.65394,25.30397,https://www.stops.lt/vilnius/index.html#stop/4001,,
16978,1513,"Žirnių st.","link oro uosto",54.65470,25.30181,https://www.stops.lt/vilnius/index.html#stop/1513,,
17033,2272,"Gulbinėlių st.","į miestą",54.77035,25.30112,https://www.stops.lt/vilnius/index.html#stop/2272,,
17034,2273,"Gulbinėlių st.","iš centro",54.77138,25.30117,https://www.stops.lt/vilnius/index.html#stop/2273,,
17036,2275,"Raudonės st.","iš centro",54.77427,25.30032,https://www.stops.lt/vilnius/index.html#stop/2275,,
17037,2276,"Raudonės st.","į centrą",54.77380,25.30039,https://www.stops.lt/vilnius/index.html#stop/2276,,
17038,2277,"Mažieji Gulbinai","iš centro",54.78649,25.29783,https://www.stops.lt/vilnius/index.html#stop/2277,,
17039,2278,"Mažieji Gulbinai","į centrą",54.78620,25.29770,https://www.stops.lt/vilnius/index.html#stop/2278,,
17252,1050,"Mažieji Pupojai","link miesto",54.70770,25.40045,https://www.stops.lt/vilnius/index.html#stop/1050,,
17253,1051,"Mažieji Pupojai","iš centro",54.70762,25.40079,https://www.stops.lt/vilnius/index.html#stop/1051,,
17256,1054,"Šiaurės Sodai","iš centro",54.70877,25.40521,https://www.stops.lt/vilnius/index.html#stop/1054,,
17258,1056,"Šiaurės Sodai","į centrą",54.70883,25.40502,https://www.stops.lt/vilnius/index.html#stop/1056,,
9568,2726,"Miškinių sodai","link miesto",54.58885,25.23720,https://www.stops.lt/vilnius/index.html#stop/2726,,
9570,2727,"Miškinių sodai","iš miesto",54.58993,25.23454,https://www.stops.lt/vilnius/index.html#stop/2727,,
939,0530b,"Stotis","""B"" stotelė",54.67110,25.28443,https://www.stops.lt/vilnius/index.html#stop/0530b,,
3590,0530d,"Stotis","""D"" stotelė",54.67106,25.28399,https://www.stops.lt/vilnius/index.html#stop/0530d,,
3617,0530g,"Stotis","""G"" stotelė",54.67085,25.28336,https://www.stops.lt/vilnius/index.html#stop/0530g,,
4266,0530c,"Stotis","""C"" stotelė",54.67108,25.28420,https://www.stops.lt/vilnius/index.html#stop/0530c,,
5156,0530j,"Stotis","""J"" stotelė",54.67025,25.28349,https://www.stops.lt/vilnius/index.html#stop/0530j,,
5300,0530a,"Stotis","""A"" stotelė",54.67071,25.28490,https://www.stops.lt/vilnius/index.html#stop/0530a,,
7914,0530h,"Stotis","""H"" stotelė",54.67077,25.28326,https://www.stops.lt/vilnius/index.html#stop/0530h,,
5524,0501,"Algirdo st.","iš centro",54.68197,25.26820,https://www.stops.lt/vilnius/index.html#stop/0501,,
6840,0502,"Algirdo st.","link centro",54.68145,25.26640,https://www.stops.lt/vilnius/index.html#stop/0502,,
5160,0415,"Aguonų st.","link stoties",54.67263,25.27852,https://www.stops.lt/vilnius/index.html#stop/0415,,
6650,0414,"Aguonų st.","iš stoties",54.67284,25.27736,https://www.stops.lt/vilnius/index.html#stop/0414,,
6362,0517,"Naujamiestis","iš stoties",54.67043,25.26121,https://www.stops.lt/vilnius/index.html#stop/0517,,
6363,0518,"Naujamiestis","link stoties",54.67049,25.26260,https://www.stops.lt/vilnius/index.html#stop/0518,,
5166,0521,"Vienaragių st.","link stoties",54.67191,25.27022,https://www.stops.lt/vilnius/index.html#stop/0521,,
5167,0519,"Vienaragių st.","iš centro",54.67180,25.26847,https://www.stops.lt/vilnius/index.html#stop/0519,,
5655,0516,"Naugarduko st.","link centro",54.67042,25.25985,https://www.stops.lt/vilnius/index.html#stop/0516,,
5645,0512,"Švitrigailos st.","iš centro",54.67424,25.26792,https://www.stops.lt/vilnius/index.html#stop/0512,,
5649,0514,"Vytenio st.","iš centro",54.67185,25.26233,https://www.stops.lt/vilnius/index.html#stop/0514,,
6852,0513,"Vytenio st.","link centro",54.67342,25.26607,https://www.stops.lt/vilnius/index.html#stop/0513,,
5549,0523,"„Lelija“","link Vilkpedės",54.66815,25.26369,https://www.stops.lt/vilnius/index.html#stop/0523,,
5550,0524,"„Lelija“","į centrą",54.66823,25.26460,https://www.stops.lt/vilnius/index.html#stop/0524,,
5552,0525,"Smolensko st.","iš stoties",54.66742,25.26005,https://www.stops.lt/vilnius/index.html#stop/0525,,
5553,0526,"Smolensko st.","link stoties",54.66714,25.25911,https://www.stops.lt/vilnius/index.html#stop/0526,,
5579,0507,"Simono Konarskio st.","iš centro",54.67986,25.25964,https://www.stops.lt/vilnius/index.html#stop/0507,,
5580,0506,"Simono Konarskio st.","link centro",54.67947,25.25932,https://www.stops.lt/vilnius/index.html#stop/0506,,
6343,0509,"Vingis","iš centro",54.67719,25.25438,https://www.stops.lt/vilnius/index.html#stop/0509,,
6842,0508,"Vingis","link centro",54.67754,25.25555,https://www.stops.lt/vilnius/index.html#stop/0508,,
3616,0530f,"Stotis","""F"" stotelė",54.67115,25.28328,https://www.stops.lt/vilnius/index.html#stop/0530f,,
4267,0530e,"Stotis","""E"" stotelė",54.67147,25.28327,https://www.stops.lt/vilnius/index.html#stop/0530e,,
7573,0546,"Stotis","",54.67140,25.28300,https://www.stops.lt/vilnius/index.html#stop/0546,,
5266,0504,"Mikalojaus Konstantino Čiurlionio st.","iš centro",54.68082,25.26548,https://www.stops.lt/vilnius/index.html#stop/0504,,
5272,0511,"Taraso Ševčenkos st.","iš centro",54.67694,25.26749,https://www.stops.lt/vilnius/index.html#stop/0511,,
6853,0510,"Taraso Ševčenkos st.","link centro",54.67869,25.26718,https://www.stops.lt/vilnius/index.html#stop/0510,,
5168,0520,"Vienaragių st.","link centro",54.67262,25.26932,https://www.stops.lt/vilnius/index.html#stop/0520,,
7851,0522a,"Vienaragių st.","iš centro",54.67111,25.26955,https://www.stops.lt/vilnius/index.html#stop/0522a,,
683,0505,"Mikalojaus Konstantino Čiurlionio st.","iš centro",54.68160,25.26471,https://www.stops.lt/vilnius/index.html#stop/0505,,
5267,0503,"Mikalojaus Konstantino Čiurlionio st.","link centro",54.68203,25.26526,https://www.stops.lt/vilnius/index.html#stop/0503,,
640,0531,"Amatų st.","link stoties",54.66967,25.26711,https://www.stops.lt/vilnius/index.html#stop/0531,,
6365,0515,"Statybininkų st.","link centro",54.67274,25.25565,https://www.stops.lt/vilnius/index.html#stop/0515,,
8262,0530i,"Stotis","""I"" stotelė",54.67066,25.28313,https://www.stops.lt/vilnius/index.html#stop/0530i,,
8264,0530p,"Stotis","",54.67115,25.28513,https://www.stops.lt/vilnius/index.html#stop/0530p,,
8309,0527,"Burbiškės","link stoties",54.66671,25.25310,https://www.stops.lt/vilnius/index.html#stop/0527,,
9642,0536,"Skroblų st.","link centro",54.66815,25.25570,https://www.stops.lt/vilnius/index.html#stop/0536,,
9701,0535,"Skroblų st.","link Vilkpėdės",54.66983,25.25833,https://www.stops.lt/vilnius/index.html#stop/0535,,
16581,0547,"Stotis","",54.67191,25.28338,https://www.stops.lt/vilnius/index.html#stop/0547,,
5175,1501,"Naujininkai","iš stoties",54.66084,25.27320,https://www.stops.lt/vilnius/index.html#stop/1501,,
5200,1502,"Naujininkai","į centrą",54.66275,25.27418,https://www.stops.lt/vilnius/index.html#stop/1502,,
7414,1517,"Naujininkai","link stoties",54.66192,25.27370,https://www.stops.lt/vilnius/index.html#stop/1517,,
5173,1503,"Prūsų st.","iš stoties",54.66522,25.27280,https://www.stops.lt/vilnius/index.html#stop/1503,,
6854,1504,"Prūsų st.","link stoties",54.66505,25.27316,https://www.stops.lt/vilnius/index.html#stop/1504,,
6012,1505,"Dzūkų st.","iš stoties",54.66528,25.27651,https://www.stops.lt/vilnius/index.html#stop/1505,,
6013,1506,"Dzūkų st.","link stoties",54.66582,25.27595,https://www.stops.lt/vilnius/index.html#stop/1506,,
6017,1510,"Merkinės st.","iš stoties",54.66417,25.28719,https://www.stops.lt/vilnius/index.html#stop/1510,,
6018,1511,"Merkinės st.","link stoties",54.66421,25.28622,https://www.stops.lt/vilnius/index.html#stop/1511,,
6014,1507,"Rudaminos st.","iš stoties",54.66428,25.28024,https://www.stops.lt/vilnius/index.html#stop/1507,,
6015,1508,"Rudaminos st.","link stoties",54.66463,25.27975,https://www.stops.lt/vilnius/index.html#stop/1508,,
6024,2631,"Karaimų kapinės","link stoties",54.65511,25.29743,https://www.stops.lt/vilnius/index.html#stop/2631,,
9738,1520,"Vikingų st.","link Oro uosto",54.65123,25.28203,https://www.stops.lt/vilnius/index.html#stop/1520,,
9750,1521,"Vikingų st.","link stoties",54.65183,25.28255,https://www.stops.lt/vilnius/index.html#stop/1521,,
17003,2654,"Liepynės kapinės","link stoties",54.65412,25.29115,https://www.stops.lt/vilnius/index.html#stop/2654,,
5417,2322,"Alberto Kojelavičiaus st.","link miesto",54.69516,25.39570,https://www.stops.lt/vilnius/index.html#stop/2322,,
7586,2376,"Alberto Kojelavičiaus st.","link Šiaurės g.",54.69511,25.39530,https://www.stops.lt/vilnius/index.html#stop/2376,,
6065,2367,"Bičių st.","link Arimų g.",54.69735,25.42837,https://www.stops.lt/vilnius/index.html#stop/2367,,
6066,2366,"Bičių st.","link Šiaurės g.",54.69768,25.42966,https://www.stops.lt/vilnius/index.html#stop/2366,,
6059,2361,"Gandrų st.","link Arimų g.",54.69516,25.41467,https://www.stops.lt/vilnius/index.html#stop/2361,,
6060,2360,"Gandrų st.","link Šiaurės g.",54.69521,25.41434,https://www.stops.lt/vilnius/index.html#stop/2360,,
5383,2308,"Girininkija","link miesto",54.69439,25.36363,https://www.stops.lt/vilnius/index.html#stop/2308,,
5384,2309,"Girininkija","iš miesto",54.69459,25.36486,https://www.stops.lt/vilnius/index.html#stop/2309,,
6056,2344,"Ievų st.","link Arimų g.",54.69433,25.40838,https://www.stops.lt/vilnius/index.html#stop/2344,,
6057,2343,"Ievų st.","link Šiaurės g.",54.69430,25.40698,https://www.stops.lt/vilnius/index.html#stop/2343,,
6054,2338,"Jankos Kupalos st.","link Arimų g.",54.69432,25.40168,https://www.stops.lt/vilnius/index.html#stop/2338,,
6055,2337,"Jankos Kupalos st.","link Šiaurės g.",54.69445,25.40140,https://www.stops.lt/vilnius/index.html#stop/2337,,
5385,2311,"Kučkuriškės","iš miesto",54.69551,25.36901,https://www.stops.lt/vilnius/index.html#stop/2311,,
5387,2310,"Kučkuriškės","link miesto",54.69581,25.36955,https://www.stops.lt/vilnius/index.html#stop/2310,,
6062,2365,"Rugiagėlių st.","link Arimų g.",54.69626,25.42181,https://www.stops.lt/vilnius/index.html#stop/2365,,
6064,2364,"Rugiagėlių st.","link Šiaurės g.",54.69608,25.42021,https://www.stops.lt/vilnius/index.html#stop/2364,,
5390,2320,"Širšių st.","link miesto",54.69566,25.38774,https://www.stops.lt/vilnius/index.html#stop/2320,,
5391,2321,"Širšių st.","iš miesto",54.69561,25.38930,https://www.stops.lt/vilnius/index.html#stop/2321,,
5388,2318,"Užtvankos st.","link miesto",54.69670,25.38105,https://www.stops.lt/vilnius/index.html#stop/2318,,
5389,2319,"Užtvankos st.","iš miesto",54.69650,25.38113,https://www.stops.lt/vilnius/index.html#stop/2319,,
5382,2306,"Viadukas","link miesto",54.69397,25.34920,https://www.stops.lt/vilnius/index.html#stop/2306,,
342,2375,"Arimų st.","įlaipinimas",54.70248,25.43145,https://www.stops.lt/vilnius/index.html#stop/2375,,
6068,2373,"Užkiemio st.","link Šiaurės g.",54.69889,25.43281,https://www.stops.lt/vilnius/index.html#stop/2373,,
6069,2374,"Užkiemio st.","link Arimų g.",54.69908,25.43283,https://www.stops.lt/vilnius/index.html#stop/2374,,
5396,2340,"Dūmų st.","link S. Batoro g.",54.69318,25.40137,https://www.stops.lt/vilnius/index.html#stop/2340,,
5415,2339,"Dūmų st.","link Šiaurės g.",54.69318,25.40036,https://www.stops.lt/vilnius/index.html#stop/2339,,
6034,2350,"Grigaičiai","link miesto",54.68156,25.41215,https://www.stops.lt/vilnius/index.html#stop/2350,,
6195,4603,"Galgiai","iš miesto",54.71935,25.41150,https://www.stops.lt/vilnius/index.html#stop/4603,,
548,2330,"Kalno st.","link N.Vilnios",54.70476,25.39286,https://www.stops.lt/vilnius/index.html#stop/2330,,
6221,2377,"Kalno st.","link miesto",54.70491,25.39314,https://www.stops.lt/vilnius/index.html#stop/2377,,
6051,2371,"Linksmoji st.","link Pramonės g.",54.69518,25.43604,https://www.stops.lt/vilnius/index.html#stop/2371,,
6052,2370,"Linksmoji st.","link Parko g.",54.69508,25.43593,https://www.stops.lt/vilnius/index.html#stop/2370,,
6047,2357,"Naujosios Vilnios žiedas","link Pramonės g.",54.68593,25.42996,https://www.stops.lt/vilnius/index.html#stop/2357,,
6048,2359,"Rytų st.","link Pramonės g.",54.69044,25.43374,https://www.stops.lt/vilnius/index.html#stop/2359,,
6049,2358,"Rytų st.","link Parko g.",54.68956,25.43274,https://www.stops.lt/vilnius/index.html#stop/2358,,
7588,2301,"Mildos st.","link miesto",54.69302,25.34210,https://www.stops.lt/vilnius/index.html#stop/2301,,
6040,2349,"Genių st.","iš miesto",54.68798,25.41324,https://www.stops.lt/vilnius/index.html#stop/2349,,
6041,2348,"Genių st.","link miesto",54.68827,25.41255,https://www.stops.lt/vilnius/index.html#stop/2348,,
6073,2356,"Naujosios Vilnios žiedas","įlaipinimas",54.68558,25.42811,https://www.stops.lt/vilnius/index.html#stop/2356,,
7444,2378,"Naujosios Vilnios žiedas","iš miesto",54.68543,25.42889,https://www.stops.lt/vilnius/index.html#stop/2378,,
6044,2355,"Parko st.","link Linksmosios g.",54.68550,25.42610,https://www.stops.lt/vilnius/index.html#stop/2355,,
6045,2354,"Parko st.","link Pergalės g.",54.68561,25.42449,https://www.stops.lt/vilnius/index.html#stop/2354,,
6042,2353,"Respublikinė psichiatrijos ligoninė","iš miesto",54.68563,25.41933,https://www.stops.lt/vilnius/index.html#stop/2353,,
6043,2352,"Respublikinė psichiatrijos ligoninė","link miesto",54.68594,25.41868,https://www.stops.lt/vilnius/index.html#stop/2352,,
6035,2351,"Grigaičiai","iš miesto",54.68198,25.41263,https://www.stops.lt/vilnius/index.html#stop/2351,,
6225,2346,"Tremtinių st.","iš miesto",54.69260,25.41063,https://www.stops.lt/vilnius/index.html#stop/2346,,
1129,2372,"Naujoji Vilnia","įlaipinimas",54.69523,25.44039,https://www.stops.lt/vilnius/index.html#stop/2372,,
5406,2369,"Neries st.","link Linksmosios g.",54.69563,25.42869,https://www.stops.lt/vilnius/index.html#stop/2369,,
5408,2368,"Neries st.","link Pergalės g.",54.69572,25.42939,https://www.stops.lt/vilnius/index.html#stop/2368,,
7653,2380regio,"Polocko kryptis","iš miesto",54.69237,25.46002,https://www.stops.lt/vilnius/index.html#stop/2380regio,,
7654,2381regio,"Polocko kryptis","į miestą",54.69259,25.45939,https://www.stops.lt/vilnius/index.html#stop/2381regio,,
5403,2363,"Pramonės st.","link Linksmosios g.",54.69435,25.41807,https://www.stops.lt/vilnius/index.html#stop/2363,,
5411,2362,"Pramonės st.","link Pergalės g.",54.69448,25.41865,https://www.stops.lt/vilnius/index.html#stop/2362,,
5399,2347,"Tremtinių st.","iš miesto",54.69310,25.41141,https://www.stops.lt/vilnius/index.html#stop/2347,,
7655,2382regio,"Viktariškės","iš miesto",54.69346,25.48062,https://www.stops.lt/vilnius/index.html#stop/2382regio,,
7656,2383aregio,"Viktariškės","į miestą",54.69299,25.47763,https://www.stops.lt/vilnius/index.html#stop/2383aregio,,
6888,1019,"Rokantiškės","link miesto",54.70411,25.36406,https://www.stops.lt/vilnius/index.html#stop/1019,,
5394,2323,"Alberto Kojelavičiaus st.","iš miesto",54.69465,25.39674,https://www.stops.lt/vilnius/index.html#stop/2323,,
6230,2324,"Alberto Kojelavičiaus st.","link miesto",54.69631,25.39844,https://www.stops.lt/vilnius/index.html#stop/2324,,
6211,2331,"Palydovo st.","iš miesto",54.70100,25.40844,https://www.stops.lt/vilnius/index.html#stop/2331,,
6212,2332,"Palydovo st.","link miesto",54.70112,25.40998,https://www.stops.lt/vilnius/index.html#stop/2332,,
6207,2334,"Pupojų st.","iš miesto",54.70272,25.41411,https://www.stops.lt/vilnius/index.html#stop/2334,,
6208,2333,"Pupojų st.","link miesto",54.70183,25.41310,https://www.stops.lt/vilnius/index.html#stop/2333,,
6203,2336,"Šiaurės st.","link miesto",54.70929,25.41681,https://www.stops.lt/vilnius/index.html#stop/2336,,
6204,2335,"Šiaurės st.","iš miesto",54.70863,25.41716,https://www.stops.lt/vilnius/index.html#stop/2335,,
6215,2326,"Uosių st.","link miesto",54.69939,25.40195,https://www.stops.lt/vilnius/index.html#stop/2326,,
6217,2325,"Uosių st.","iš miesto",54.69903,25.40122,https://www.stops.lt/vilnius/index.html#stop/2325,,
6199,1020,"Vakario st.","link N.Vilnios",54.71359,25.41240,https://www.stops.lt/vilnius/index.html#stop/1020,,
6727,2342,"Lelijų st.","iš miesto",54.68949,25.40021,https://www.stops.lt/vilnius/index.html#stop/2342,,
6729,2341,"Lelijų st.","link miesto",54.68973,25.40104,https://www.stops.lt/vilnius/index.html#stop/2341,,
7587,2302,"Mildos st.","iš miesto",54.69147,25.34376,https://www.stops.lt/vilnius/index.html#stop/2302,,
6721,2315,"Pūčkoriai","iš miesto",54.69112,25.36730,https://www.stops.lt/vilnius/index.html#stop/2315,,
6722,2314,"Pūčkoriai","link miesto",54.69145,25.36641,https://www.stops.lt/vilnius/index.html#stop/2314,,
6719,2313,"Pūčkorių atodanga","iš miesto",54.69159,25.36010,https://www.stops.lt/vilnius/index.html#stop/2313,,
6732,2312,"Pūčkorių atodanga","link miesto",54.69193,25.35951,https://www.stops.lt/vilnius/index.html#stop/2312,,
6724,2317,"Stepono Batoro st.","iš miesto",54.69312,25.37896,https://www.stops.lt/vilnius/index.html#stop/2317,,
6725,2316,"Stepono Batoro st.","link miesto",54.69317,25.37802,https://www.stops.lt/vilnius/index.html#stop/2316,,
5400,2345,"Tremtinių st.","link miesto",54.69290,25.40981,https://www.stops.lt/vilnius/index.html#stop/2345,,
5381,2307,"Viadukas","iš miesto",54.69301,25.34898,https://www.stops.lt/vilnius/index.html#stop/2307,,
6218,2328,"Paparčių st.","iš miesto",54.70163,25.39411,https://www.stops.lt/vilnius/index.html#stop/2328,,
6219,2329,"Paparčių st.","link miesto",54.70157,25.39462,https://www.stops.lt/vilnius/index.html#stop/2329,,
6216,2327,"Uosių st.","link miesto",54.69943,25.40141,https://www.stops.lt/vilnius/index.html#stop/2327,,
6887,2305,"Lyglaukiai","iš miesto",54.70237,25.35381,https://www.stops.lt/vilnius/index.html#stop/2305,,
6883,2304,"Šilo st.","iš miesto",54.70009,25.34933,https://www.stops.lt/vilnius/index.html#stop/2304,,
6881,2303,"Viršupis","iš miesto",54.69615,25.34496,https://www.stops.lt/vilnius/index.html#stop/2303,,
16158,4606,"Gerovės st.","link Pergalės g.",54.69073,25.41208,https://www.stops.lt/vilnius/index.html#stop/4606,,
16167,4615,"Gerovės st.","link Darželio g.",54.69065,25.41253,https://www.stops.lt/vilnius/index.html#stop/4615,,
16160,4608,"Karklėnų st.","link Pergalės g.",54.69042,25.42695,https://www.stops.lt/vilnius/index.html#stop/4608,,
16162,4610,"Karklėnų st.","link Linksmosios g.",54.69036,25.42668,https://www.stops.lt/vilnius/index.html#stop/4610,,
16156,4605,"Rytų st.","link Pergalės g.",54.69016,25.43180,https://www.stops.lt/vilnius/index.html#stop/4605,,
16164,4612,"Žvirblių st.","link Pergalės g.",54.69070,25.41891,https://www.stops.lt/vilnius/index.html#stop/4612,,
16165,4613,"Žvirblių st.","link Karklėnų g.",54.69059,25.41844,https://www.stops.lt/vilnius/index.html#stop/4613,,
17007,2429,"Gerviškių st.","iš miesto",54.68233,25.42799,https://www.stops.lt/vilnius/index.html#stop/2429,,
17009,2431,"Gerviškių st.","į miestą",54.68233,25.42822,https://www.stops.lt/vilnius/index.html#stop/2431,,
16453,2426,"Meškonių st.","į miestą",54.67992,25.42000,https://www.stops.lt/vilnius/index.html#stop/2426,,
16454,2427,"Meškonių st.","išlaipinimas",54.68002,25.42011,https://www.stops.lt/vilnius/index.html#stop/2427,,
8373,2379,"Naujoji Vilnia","iš miesto",54.69526,25.43904,https://www.stops.lt/vilnius/index.html#stop/2379,,
8342,2387regio,"Verbų st.","iš miesto",54.69446,25.44467,https://www.stops.lt/vilnius/index.html#stop/2387regio,,
8343,2388regio,"Verbų st.","į miestą",54.69455,25.44464,https://www.stops.lt/vilnius/index.html#stop/2388regio,,
10612,1046,"Duburio st.","link miesto",54.70728,25.39168,https://www.stops.lt/vilnius/index.html#stop/1046,,
14663,1049,"Duburio st.","link N.Vilnios",54.70731,25.39033,https://www.stops.lt/vilnius/index.html#stop/1049,,
10317,1030,"Klonio st.","link miesto",54.70586,25.37112,https://www.stops.lt/vilnius/index.html#stop/1030,,
10319,1031,"Klonio st.","link N.Vilnios",54.70582,25.37100,https://www.stops.lt/vilnius/index.html#stop/1031,,
9606,2393,"Rokantiškių sodai","iš miesto",54.70590,25.37578,https://www.stops.lt/vilnius/index.html#stop/2393,,
9607,2394,"Rokantiškių sodai","link miesto",54.70606,25.37675,https://www.stops.lt/vilnius/index.html#stop/2394,,
9604,2391,"Uosių sodai","iš miesto",54.70754,25.38691,https://www.stops.lt/vilnius/index.html#stop/2391,,
9605,2392,"Uosių sodai","link miesto",54.70770,25.38548,https://www.stops.lt/vilnius/index.html#stop/2392,,
6133,4310,"Sodžiaus st.","iš miesto",54.61364,25.38872,https://www.stops.lt/vilnius/index.html#stop/4310,,
6134,4309,"Sodžiaus st.","link miesto",54.61390,25.38901,https://www.stops.lt/vilnius/index.html#stop/4309,,
6130,4307,"Stankutiškės","iš miesto",54.62039,25.38993,https://www.stops.lt/vilnius/index.html#stop/4307,,
6131,4308,"Stankutiškės","link miesto",54.62085,25.39024,https://www.stops.lt/vilnius/index.html#stop/4308,,
6126,4304,"Daržininkai","iš miesto",54.63720,25.36844,https://www.stops.lt/vilnius/index.html#stop/4304,,
6127,4327,"Daržininkai","link miesto",54.63803,25.36670,https://www.stops.lt/vilnius/index.html#stop/4327,,
6120,4301,"Minsko plentas","iš miesto",54.64434,25.33872,https://www.stops.lt/vilnius/index.html#stop/4301,,
6124,4303,"Nemėžis","iš miesto",54.63997,25.35694,https://www.stops.lt/vilnius/index.html#stop/4303,,
6125,1420,"Nemėžis","link stoties",54.64047,25.35628,https://www.stops.lt/vilnius/index.html#stop/1420,,
6128,4306,"Posūkis","iš miesto",54.62644,25.39308,https://www.stops.lt/vilnius/index.html#stop/4306,,
6129,4329,"Posūkis","link miesto",54.62727,25.39227,https://www.stops.lt/vilnius/index.html#stop/4329,,
6122,4302,"Sodai","iš miesto",54.64243,25.34666,https://www.stops.lt/vilnius/index.html#stop/4302,,
10532,4359,"Ramunių st.","iš miesto",54.63259,25.33531,https://www.stops.lt/vilnius/index.html#stop/4359,,
9680,4351,"Baltarusių st.","iš miesto",54.63364,25.34363,https://www.stops.lt/vilnius/index.html#stop/4351,,
17854,4354,"Smėlio st.","iš miesto",54.63440,25.35045,https://www.stops.lt/vilnius/index.html#stop/4354,,
9681,4353,"Sodybų st.","iš miesto",54.63182,25.32668,https://www.stops.lt/vilnius/index.html#stop/4353,,
9790,4358,"Šveicarų st.","iš miesto",54.63509,25.32657,https://www.stops.lt/vilnius/index.html#stop/4358,,
9677,4350,"Nemėžis","iš miesto",54.63900,25.35580,https://www.stops.lt/vilnius/index.html#stop/4350,,
9678,4352,"Vladislavo Sirokomlės st.","iš miesto",54.63453,25.35393,https://www.stops.lt/vilnius/index.html#stop/4352,,
6978,5139,"Durpių st.","iš miesto",54.59582,25.20494,https://www.stops.lt/vilnius/index.html#stop/5139,,
6979,5138,"Durpių st.","link miesto",54.59657,25.20456,https://www.stops.lt/vilnius/index.html#stop/5138,,
4565,5114,"Pagiriai","į miestą",54.57716,25.19829,https://www.stops.lt/vilnius/index.html#stop/5114,,
4612,5133,"Pirmieji Pagiriai","iš miesto",54.58635,25.21041,https://www.stops.lt/vilnius/index.html#stop/5133,,
4613,5134,"Pirmieji Pagiriai","link miesto",54.58711,25.21116,https://www.stops.lt/vilnius/index.html#stop/5134,,
4563,5112,"Žemieji Pagiriai","iš miesto",54.58150,25.20442,https://www.stops.lt/vilnius/index.html#stop/5112,,
4564,5113,"Žemieji Pagiriai","link miesto",54.58272,25.20609,https://www.stops.lt/vilnius/index.html#stop/5113,,
9468,2721,"Vokės parkas","iš miesto",54.59416,25.21924,https://www.stops.lt/vilnius/index.html#stop/2721,,
9567,2725,"Vokės parkas","link miesto",54.59525,25.21919,https://www.stops.lt/vilnius/index.html#stop/2725,,
9479,3902,"Juliaus Janonio st.","link miesto",54.64765,25.11084,https://www.stops.lt/vilnius/index.html#stop/3902,,
9683,3903,"Juliaus Janonio st.","iš miesto",54.64778,25.10911,https://www.stops.lt/vilnius/index.html#stop/3903,,
9967,2951,"Vilijos st.","link žiedo",54.63484,25.17254,https://www.stops.lt/vilnius/index.html#stop/2951,,
7022,3307,"Gabijos st.","iš centro",54.73135,25.22435,https://www.stops.lt/vilnius/index.html#stop/3307,,
7023,3308,"Gabijos st.","link centro",54.73140,25.22632,https://www.stops.lt/vilnius/index.html#stop/3308,,
687,3303,"Medeinos st.","link centro",54.72871,25.21815,https://www.stops.lt/vilnius/index.html#stop/3303,,
6925,3304,"Medeinos st.","iš centro",54.72967,25.21902,https://www.stops.lt/vilnius/index.html#stop/3304,,
7603,3305,"Skalvių st.","įlaipinimas",54.73455,25.21963,https://www.stops.lt/vilnius/index.html#stop/3305,,
6931,3306,"Skalvių st.","išlaipinimas",54.73471,25.22005,https://www.stops.lt/vilnius/index.html#stop/3306,,
949,3301,"Sūduvių st.","link centro",54.72563,25.21922,https://www.stops.lt/vilnius/index.html#stop/3301,,
5141,3302,"Sūduvių st.","iš centro",54.72646,25.21906,https://www.stops.lt/vilnius/index.html#stop/3302,,
364,3320,"Juliaus Juzeliūno st.","link Laisvės pr.",54.73041,25.23684,https://www.stops.lt/vilnius/index.html#stop/3320,,
6766,3319,"Juliaus Juzeliūno st.","link Ukmergės g.",54.72918,25.23568,https://www.stops.lt/vilnius/index.html#stop/3319,,
6484,3324,"Pašilaičių žiedas","visos kryptys",54.72773,25.23387,https://www.stops.lt/vilnius/index.html#stop/3324,,
6481,3313,"Vilniaus rajono poliklinika","iš centro",54.72332,25.23400,https://www.stops.lt/vilnius/index.html#stop/3313,,
6482,3314,"Vilniaus rajono poliklinika","link centro",54.72281,25.23343,https://www.stops.lt/vilnius/index.html#stop/3314,,
6523,3316,"Žemynos st.","link centro",54.72576,25.23344,https://www.stops.lt/vilnius/index.html#stop/3316,,
6653,3315,"Žemynos st.","iš centro",54.72665,25.23398,https://www.stops.lt/vilnius/index.html#stop/3315,,
7898,3328,"Juliaus Juzeliūno st.","iš centro",54.73054,25.23504,https://www.stops.lt/vilnius/index.html#stop/3328,,
7027,3312,"Pašilaičiai","link centro",54.73141,25.23164,https://www.stops.lt/vilnius/index.html#stop/3312,,
7028,3311,"Pašilaičiai","iš centro",54.73195,25.23050,https://www.stops.lt/vilnius/index.html#stop/3311,,
795,3310,"Deivių st.","įlaipinimas",54.73562,25.22905,https://www.stops.lt/vilnius/index.html#stop/3310,,
7896,3326,"Jurgio Baltrušaičio st.","link centro",54.72934,25.23892,https://www.stops.lt/vilnius/index.html#stop/3326,,
7897,3327,"Jurgio Baltrušaičio st.","iš centro",54.72903,25.23961,https://www.stops.lt/vilnius/index.html#stop/3327,,
8268,3329,"Jurgio Baltrušaičio st.","link centro",54.72944,25.23738,https://www.stops.lt/vilnius/index.html#stop/3329,,
8441,3330,"Skalvių žiedas","galinė st.",54.73482,25.21859,https://www.stops.lt/vilnius/index.html#stop/3330,,
8275,3335,"Pašilaičių žiedas","išlaipinimas",54.72842,25.23430,https://www.stops.lt/vilnius/index.html#stop/3335,,
17333,3338,"Gileikių st.","link centro",54.73576,25.21127,https://www.stops.lt/vilnius/index.html#stop/3338,,
9766,3336,"Pavilnionių st.","link centro",54.73575,25.21449,https://www.stops.lt/vilnius/index.html#stop/3336,,
9768,3337,"Pavilnionių st.","iš centro",54.73569,25.21497,https://www.stops.lt/vilnius/index.html#stop/3337,,
9153,3332,"Perkūno st.","link centro",54.73936,25.22720,https://www.stops.lt/vilnius/index.html#stop/3332,,
449,1210,"Filaretų st.","iš stoties",54.68532,25.30853,https://www.stops.lt/vilnius/index.html#stop/1210,,
6571,0437,"Filaretų st.","link Olandų žiedo",54.68473,25.30917,https://www.stops.lt/vilnius/index.html#stop/0437,,
603,1101,"Krivių st.","iš stoties",54.68802,25.30531,https://www.stops.lt/vilnius/index.html#stop/1101,,
6568,0438,"Krivių st.","link Olandų žiedo",54.68730,25.30562,https://www.stops.lt/vilnius/index.html#stop/0438,,
6572,1209,"Polocko st.","link centro",54.68331,25.31286,https://www.stops.lt/vilnius/index.html#stop/1209,,
6565,0439,"Vasaros st.","link stoties",54.69130,25.30471,https://www.stops.lt/vilnius/index.html#stop/0439,,
6566,1102,"Vasaros st.","iš stoties",54.69122,25.30503,https://www.stops.lt/vilnius/index.html#stop/1102,,
684,1218,"Markučiai","link centro",54.67430,25.32268,https://www.stops.lt/vilnius/index.html#stop/1218,,
387,1217,"Belmontas","link N.Vilnios",54.68403,25.32038,https://www.stops.lt/vilnius/index.html#stop/1217,,
5425,1211,"Belmontas","link centro",54.68379,25.31940,https://www.stops.lt/vilnius/index.html#stop/1211,,
5421,1216,"Mildos st.","link centro",54.69162,25.34337,https://www.stops.lt/vilnius/index.html#stop/1216,,
5372,1213,"Rudens st.","iš centro",54.68640,25.32505,https://www.stops.lt/vilnius/index.html#stop/1213,,
5424,1212,"Rudens st.","link centro",54.68599,25.32358,https://www.stops.lt/vilnius/index.html#stop/1212,,
5373,1215,"Šaudykla","iš centro",54.68902,25.33243,https://www.stops.lt/vilnius/index.html#stop/1215,,
5423,1214,"Šaudykla","link centro",54.68899,25.33066,https://www.stops.lt/vilnius/index.html#stop/1214,,
931,1208,"Srovės st.","link N.Vilnios",54.68188,25.31555,https://www.stops.lt/vilnius/index.html#stop/1208,,
5857,1204,"Vilnelės st.","iš centro",54.67465,25.31948,https://www.stops.lt/vilnius/index.html#stop/1204,,
5858,1205,"Vilnelės st.","link centro",54.67490,25.31879,https://www.stops.lt/vilnius/index.html#stop/1205,,
356,1207,"Drujos st.","link N.Vilnios",54.67878,25.31164,https://www.stops.lt/vilnius/index.html#stop/1207,,
5925,0424,"Drujos st.","link stoties",54.67839,25.31053,https://www.stops.lt/vilnius/index.html#stop/0424,,
1123,1203,"Zarasų st.","link centro",54.67669,25.31012,https://www.stops.lt/vilnius/index.html#stop/1203,,
8336,1206,"Markučiai","link centro",54.67437,25.32209,https://www.stops.lt/vilnius/index.html#stop/1206,,
6705,1414,"Alėja","link N.Vilnios",54.67718,25.38428,https://www.stops.lt/vilnius/index.html#stop/1414,,
6706,1413,"Alėja","link stoties",54.67721,25.38291,https://www.stops.lt/vilnius/index.html#stop/1413,,
6695,1407,"Grūdų st.","link stoties",54.66794,25.35941,https://www.stops.lt/vilnius/index.html#stop/1407,,
6696,1408,"Grūdų st.","link N.Vilnios",54.66867,25.35996,https://www.stops.lt/vilnius/index.html#stop/1408,,
6703,1412,"Įtraukties centras","link N.Vilnios",54.67501,25.36844,https://www.stops.lt/vilnius/index.html#stop/1412,,
6704,1411,"Įtraukties centras","link stoties",54.67492,25.36752,https://www.stops.lt/vilnius/index.html#stop/1411,,
6699,1409,"Pavilnys","link stoties",54.67120,25.36119,https://www.stops.lt/vilnius/index.html#stop/1409,,
6700,1410,"Pavilnys","link N.Vilnios",54.67171,25.36178,https://www.stops.lt/vilnius/index.html#stop/1410,,
6707,1416,"Strielčiukai","link N.Vilnios",54.67783,25.39869,https://www.stops.lt/vilnius/index.html#stop/1416,,
6708,1415,"Strielčiukai","link stoties",54.67790,25.39691,https://www.stops.lt/vilnius/index.html#stop/1415,,
6693,1405,"Garsioji st.","link stoties",54.66689,25.35356,https://www.stops.lt/vilnius/index.html#stop/1405,,
6694,1406,"Garsioji st.","link N.Vilnios",54.66692,25.35541,https://www.stops.lt/vilnius/index.html#stop/1406,,
7716,1427,"Šumsko kryptis","įlaipinimas",54.65889,25.36440,https://www.stops.lt/vilnius/index.html#stop/1427,,
7818,1428,"Ašmenėlės st.","link miesto",54.66035,25.35536,https://www.stops.lt/vilnius/index.html#stop/1428,,
7819,1429,"Ašmenėlės st.","iš miesto",54.66028,25.35559,https://www.stops.lt/vilnius/index.html#stop/1429,,
6688,1401,"Guriai","link stoties",54.66285,25.34007,https://www.stops.lt/vilnius/index.html#stop/1401,,
7710,1422,"Guriai","iš stoties",54.66245,25.34243,https://www.stops.lt/vilnius/index.html#stop/1422,,
7714,1425,"Gurių sodai","iš miesto",54.65986,25.35971,https://www.stops.lt/vilnius/index.html#stop/1425,,
7715,1426,"Gurių sodai","link miesto",54.65997,25.35911,https://www.stops.lt/vilnius/index.html#stop/1426,,
7711,1423,"Pranciškaus Baltraus Šivickio st.","iš miesto",54.66124,25.34986,https://www.stops.lt/vilnius/index.html#stop/1423,,
7712,1424,"Pranciškaus Baltraus Šivickio st.","link miesto",54.66132,25.34958,https://www.stops.lt/vilnius/index.html#stop/1424,,
617,1417,"Kinologijos centras","link stoties",54.64925,25.32053,https://www.stops.lt/vilnius/index.html#stop/1417,,
6121,1418,"Minsko plentas","link stoties",54.64501,25.33736,https://www.stops.lt/vilnius/index.html#stop/1418,,
6123,1419,"Sodai","link stoties",54.64299,25.34566,https://www.stops.lt/vilnius/index.html#stop/1419,,
6687,1402,"Guriai","iš stoties",54.66331,25.34187,https://www.stops.lt/vilnius/index.html#stop/1402,,
6690,1403,"Pavilnio sodai","link stoties",54.66494,25.34565,https://www.stops.lt/vilnius/index.html#stop/1403,,
6691,1404,"Pavilnio sodai","link N.Vilnios",54.66501,25.34655,https://www.stops.lt/vilnius/index.html#stop/1404,,
7364,1421,"Žemasis Pavilnys","",54.67924,25.35934,https://www.stops.lt/vilnius/index.html#stop/1421,,
9660,1436,"Pavilnio regioninis parkas","link Gurių",54.66007,25.33748,https://www.stops.lt/vilnius/index.html#stop/1436,,
9661,1437,"Pavilnio regioninis parkas","link miesto",54.65995,25.33723,https://www.stops.lt/vilnius/index.html#stop/1437,,
16230,1439,"Šumsko kryptis","link miesto",54.65934,25.36306,https://www.stops.lt/vilnius/index.html#stop/1439,,
16231,1440,"Šumsko kryptis","iš miesto",54.65884,25.36494,https://www.stops.lt/vilnius/index.html#stop/1440,,
8344,1434,"Tuputiškės","iš miesto",54.67649,25.34376,https://www.stops.lt/vilnius/index.html#stop/1434,,
8345,1435,"Tuputiškės","link miesto",54.67655,25.34235,https://www.stops.lt/vilnius/index.html#stop/1435,,
8333,1432,"Žemoji st.","iš miesto",54.67615,25.35091,https://www.stops.lt/vilnius/index.html#stop/1432,,
8335,1433,"Žemoji st.","link miesto",54.67619,25.35063,https://www.stops.lt/vilnius/index.html#stop/1433,,
8331,1430,"Žiedų st.","iš miesto",54.67762,25.35552,https://www.stops.lt/vilnius/index.html#stop/1430,,
8332,1431,"Žiedų st.","link miesto",54.67737,25.35472,https://www.stops.lt/vilnius/index.html#stop/1431,,
15639,3318,"Pavilionys","iš centro",54.74167,25.22222,https://www.stops.lt/vilnius/index.html#stop/3318,,
15634,3309,"Perkūnkiemis","link centro",54.73921,25.22016,https://www.stops.lt/vilnius/index.html#stop/3309,,
15636,3317,"Perkūnkiemis","iš centro",54.73854,25.21926,https://www.stops.lt/vilnius/index.html#stop/3317,,
7693,3612,"Bitėnų st.","išlaipinimas",54.70178,25.17195,https://www.stops.lt/vilnius/index.html#stop/3612,,
7694,3613,"Bitėnų st.","link centro",54.70169,25.17235,https://www.stops.lt/vilnius/index.html#stop/3613,,
7790,3621,"Bitėnų žiedas","išlaipinimas",54.70320,25.17291,https://www.stops.lt/vilnius/index.html#stop/3621,,
4526,3609,"Gilužio st.","link centro",54.70400,25.17438,https://www.stops.lt/vilnius/index.html#stop/3609,,
7695,3614,"Gilužio st.","iš centro",54.70451,25.17449,https://www.stops.lt/vilnius/index.html#stop/3614,,
8067,3628,"Karaliaučiaus st.","iš centro",54.70798,25.17510,https://www.stops.lt/vilnius/index.html#stop/3628,,
7948,3623,"Įsruties st.","iš centro",54.71045,25.18122,https://www.stops.lt/vilnius/index.html#stop/3623,,
7949,3624,"Įsruties st.","link centro",54.70994,25.18293,https://www.stops.lt/vilnius/index.html#stop/3624,,
7950,3625,"Pajautos st.","į centrą",54.71050,25.17406,https://www.stops.lt/vilnius/index.html#stop/3625,,
7951,3626,"Pajautos st.","link centro",54.71018,25.17608,https://www.stops.lt/vilnius/index.html#stop/3626,,
7959,3627,"Pajautos st.","iš centro",54.70977,25.17488,https://www.stops.lt/vilnius/index.html#stop/3627,,
8060,3602,"Pilaitė","iš centro",54.70247,25.20345,https://www.stops.lt/vilnius/index.html#stop/3602,,
4988,5164,"Piliakalnio st.","iš centro",54.69991,25.21175,https://www.stops.lt/vilnius/index.html#stop/5164,,
4989,5165,"Piliakalnio st.","link centro",54.69943,25.21248,https://www.stops.lt/vilnius/index.html#stop/5165,,
7947,3622,"Smalinės st.","iš centro",54.70932,25.18742,https://www.stops.lt/vilnius/index.html#stop/3622,,
8069,3629,"Smalinės st.","link centro",54.70855,25.18792,https://www.stops.lt/vilnius/index.html#stop/3629,,
6621,3601,"Senoji Pilaitė","link centro",54.70416,25.19664,https://www.stops.lt/vilnius/index.html#stop/3601,,
6611,3607,"Karaliaučiaus st.","link centro",54.70725,25.17582,https://www.stops.lt/vilnius/index.html#stop/3607,,
6612,3608,"Karaliaučiaus st.","iš centro",54.70740,25.17572,https://www.stops.lt/vilnius/index.html#stop/3608,,
6618,3603,"Papilėnų st.","link centro",54.70685,25.18741,https://www.stops.lt/vilnius/index.html#stop/3603,,
6619,3631,"Papilėnų st.","iš miesto",54.70683,25.18821,https://www.stops.lt/vilnius/index.html#stop/3631,,
6614,3606,"Tolminkiemio st.","iš centro",54.70736,25.18119,https://www.stops.lt/vilnius/index.html#stop/3606,,
6615,3605,"Tolminkiemio st.","link centro",54.70721,25.18009,https://www.stops.lt/vilnius/index.html#stop/3605,,
9561,3635,"Papilėnų st.","link centro",54.70753,25.18781,https://www.stops.lt/vilnius/index.html#stop/3635,,
8370,3632,"Padekaniškės","iš centro",54.71059,25.16035,https://www.stops.lt/vilnius/index.html#stop/3632,,
8371,3633,"Padekaniškės","link centro",54.71045,25.16312,https://www.stops.lt/vilnius/index.html#stop/3633,,
8934,3634,"Pilaitė","link centro",54.70095,25.20542,https://www.stops.lt/vilnius/index.html#stop/3634,,
17121,3638,"Paplūdimio st.","iš centro",54.69888,25.17690,https://www.stops.lt/vilnius/index.html#stop/3638,,
17123,3639,"Paplūdimio st.","į centrą",54.69899,25.17747,https://www.stops.lt/vilnius/index.html#stop/3639,,
17118,3636,"Imanuelio Kanto st.","iš centro",54.70404,25.18815,https://www.stops.lt/vilnius/index.html#stop/3636,,
17120,3637,"Imanuelio Kanto st.","į centrą",54.70491,25.18879,https://www.stops.lt/vilnius/index.html#stop/3637,,
17769,3665,"Smalinės st.","iš centro",54.70995,25.18933,https://www.stops.lt/vilnius/index.html#stop/3665,,
17179,3641,"Taurupės st.","iš centro",54.70126,25.18265,https://www.stops.lt/vilnius/index.html#stop/3641,,
17181,3643,"Taurupės st.","į centrą",54.70119,25.18285,https://www.stops.lt/vilnius/index.html#stop/3643,,
17225,3660,"Varnės st.","iš centro",54.71623,25.17064,https://www.stops.lt/vilnius/index.html#stop/3660,,
17228,3662,"Varnės st.","į centrą",54.71584,25.16911,https://www.stops.lt/vilnius/index.html#stop/3662,,
17221,3658,"Vėluvos st.","iš centro",54.71251,25.16060,https://www.stops.lt/vilnius/index.html#stop/3658,,
17223,3659,"Vėluvos st.","į centrą",54.71283,25.16034,https://www.stops.lt/vilnius/index.html#stop/3659,,
7624,3610,"Platiniškės","galinė st.",54.71351,25.13098,https://www.stops.lt/vilnius/index.html#stop/3610,,
7625,3611,"Šventapilės st.","į centrą",54.70409,25.12483,https://www.stops.lt/vilnius/index.html#stop/3611,,
5948,1514,"Liepkalnis","iš stoties",54.66285,25.29885,https://www.stops.lt/vilnius/index.html#stop/1514,,
6019,1512,"Perlojos st.","iš stoties",54.66423,25.29368,https://www.stops.lt/vilnius/index.html#stop/1512,,
6020,1317,"Perlojos st.","link stoties",54.66464,25.29225,https://www.stops.lt/vilnius/index.html#stop/1317,,
5946,1316,"Liepkalnis","iš stoties",54.66287,25.29995,https://www.stops.lt/vilnius/index.html#stop/1316,,
5947,1315,"Liepkalnis","link stoties",54.66298,25.30015,https://www.stops.lt/vilnius/index.html#stop/1315,,
5998,1314,"Žirnių st.","link stoties",54.65469,25.30307,https://www.stops.lt/vilnius/index.html#stop/1314,,
6673,0418,"Gervėčių st.","iš stoties",54.67460,25.29728,https://www.stops.lt/vilnius/index.html#stop/0418,,
6674,0419,"Gervėčių st.","link stoties",54.67336,25.29882,https://www.stops.lt/vilnius/index.html#stop/0419,,
6675,1307,"Rasų kapinės","iš stoties",54.67002,25.30118,https://www.stops.lt/vilnius/index.html#stop/1307,,
6676,1306,"Rasų kapinės","link stoties",54.67046,25.30109,https://www.stops.lt/vilnius/index.html#stop/1306,,
6678,1309,"Dunojaus st.","iš stoties",54.66644,25.30701,https://www.stops.lt/vilnius/index.html#stop/1309,,
6679,1308,"Dunojaus st.","link stoties",54.66661,25.30673,https://www.stops.lt/vilnius/index.html#stop/1308,,
6682,1312,"Juodasis kelias","link stoties",54.66648,25.32460,https://www.stops.lt/vilnius/index.html#stop/1312,,
6683,1313,"Juodasis kelias","iš stoties",54.66634,25.32542,https://www.stops.lt/vilnius/index.html#stop/1313,,
6680,1310,"Ribiškės","link stoties",54.66687,25.31260,https://www.stops.lt/vilnius/index.html#stop/1310,,
6681,1311,"Ribiškės","iš stoties",54.66684,25.31329,https://www.stops.lt/vilnius/index.html#stop/1311,,
7688,1318,"Balstogės st.","link centro",54.67221,25.30501,https://www.stops.lt/vilnius/index.html#stop/1318,,
7689,1319,"Balstogės st.","link Senamiesčio",54.67137,25.30457,https://www.stops.lt/vilnius/index.html#stop/1319,,
8365,1519,"Liepkalnis","link stoties",54.66277,25.29962,https://www.stops.lt/vilnius/index.html#stop/1519,,
7108,5135,"Beržų st.","link Molėtų pl.",54.80761,25.24898,https://www.stops.lt/vilnius/index.html#stop/5135,,
7344,5192,"Beržų st.","link Bendorių",54.80782,25.24738,https://www.stops.lt/vilnius/index.html#stop/5192,,
7109,5104,"Riešės gimnazija","link Molėtų pl.",54.80852,25.23468,https://www.stops.lt/vilnius/index.html#stop/5104,,
7110,5103,"Riešės gimnazija","link Bendorių",54.80876,25.23330,https://www.stops.lt/vilnius/index.html#stop/5103,,
7106,5101,"Didžioji Riešė","link Molėtų pl.",54.80607,25.25677,https://www.stops.lt/vilnius/index.html#stop/5101,,
7107,5102,"Didžioji Riešė","link Riešės",54.80688,25.25676,https://www.stops.lt/vilnius/index.html#stop/5102,,
7103,5131,"Kaštonų st.","link Molėtų pl.",54.79815,25.26213,https://www.stops.lt/vilnius/index.html#stop/5131,,
7104,5132,"Kaštonų st.","link Riešės",54.79836,25.26211,https://www.stops.lt/vilnius/index.html#stop/5132,,
7097,5125,"Kiparisų st.","link Molėtų pl.",54.78219,25.27196,https://www.stops.lt/vilnius/index.html#stop/5125,,
7098,5126,"Kiparisų st.","link Riešės",54.78325,25.27173,https://www.stops.lt/vilnius/index.html#stop/5126,,
7101,5129,"Lauko st.","link Molėtų pl.",54.79221,25.26597,https://www.stops.lt/vilnius/index.html#stop/5129,,
7102,5130,"Lauko st.","link Riešės",54.79315,25.26582,https://www.stops.lt/vilnius/index.html#stop/5130,,
7099,5127,"Samanų st.","link Molėtų pl.",54.78641,25.26938,https://www.stops.lt/vilnius/index.html#stop/5127,,
7100,5128,"Samanų st.","link Riešės",54.78714,25.26907,https://www.stops.lt/vilnius/index.html#stop/5128,,
4590,5121,"Alyvų st.","link Kalino",54.80490,25.26845,https://www.stops.lt/vilnius/index.html#stop/5121,,
4591,5122,"Alyvų st.","link Riešės",54.80492,25.27128,https://www.stops.lt/vilnius/index.html#stop/5122,,
8324,5202,"Kooperatyvo st.","iš miesto",54.80180,25.25981,https://www.stops.lt/vilnius/index.html#stop/5202,,
8325,5201,"Kooperatyvo st.","link miesto",54.80107,25.26002,https://www.stops.lt/vilnius/index.html#stop/5201,,
8472,5206,"Vanaginės žiedas","visos kryptys",54.78134,25.27287,https://www.stops.lt/vilnius/index.html#stop/5206,,
5975,4322,"Čekėnų st.","iš miesto",54.59265,25.33948,https://www.stops.lt/vilnius/index.html#stop/4322,,
5976,4321,"Čekėnų st.","link miesto",54.59302,25.33798,https://www.stops.lt/vilnius/index.html#stop/4321,,
5973,4324,"Rudaminos paukštynas","iš miesto",54.59464,25.32951,https://www.stops.lt/vilnius/index.html#stop/4324,,
5974,4323,"Rudaminos paukštynas","link miesto",54.59484,25.32915,https://www.stops.lt/vilnius/index.html#stop/4323,,
5981,4318,"Draugystės st.","link miesto",54.59598,25.36412,https://www.stops.lt/vilnius/index.html#stop/4318,,
5982,4317,"Draugystės st.","iš miesto",54.59592,25.36351,https://www.stops.lt/vilnius/index.html#stop/4317,,
17589,4328,"Rudamina","iš miesto",54.59210,25.34908,https://www.stops.lt/vilnius/index.html#stop/4328,,
17594,4334,"Rudamina","į miestą",54.59165,25.34692,https://www.stops.lt/vilnius/index.html#stop/4334,,
6260,2708,"Mechanikų st.","link Eišiškių pl.",54.60968,25.25171,https://www.stops.lt/vilnius/index.html#stop/2708,,
6261,2709,"Mechanikų st.","link Salininkų",54.60970,25.25147,https://www.stops.lt/vilnius/index.html#stop/2709,,
6263,2706,"Salininkų žiedas","link miesto",54.61419,25.25197,https://www.stops.lt/vilnius/index.html#stop/2706,,
6264,2707,"Salininkų žiedas","visos kryptys",54.61403,25.25182,https://www.stops.lt/vilnius/index.html#stop/2707,,
6253,2713,"Jono Stašaičio st.","link miesto",54.60512,25.26033,https://www.stops.lt/vilnius/index.html#stop/2713,,
6254,2712,"Jono Stašaičio st.","link Mechanikų g.",54.60525,25.25838,https://www.stops.lt/vilnius/index.html#stop/2712,,
6972,5137,"Kelmijos sodai","link miesto",54.60789,25.24404,https://www.stops.lt/vilnius/index.html#stop/5137,,
6973,5136,"Kelmijos sodai","iš miesto",54.60828,25.24382,https://www.stops.lt/vilnius/index.html#stop/5136,,
6246,2715,"Pervaža","iš miesto",54.60948,25.27456,https://www.stops.lt/vilnius/index.html#stop/2715,,
6247,4008,"Pervaža","link miesto",54.60923,25.27467,https://www.stops.lt/vilnius/index.html#stop/4008,,
4705,5145,"Raistelių miškas","iš miesto",54.61127,25.23016,https://www.stops.lt/vilnius/index.html#stop/5145,,
4706,5146,"Raistelių miškas","link miesto",54.61112,25.23105,https://www.stops.lt/vilnius/index.html#stop/5146,,
6243,2638,"Sakalaičių st.","iš miesto",54.61186,25.27491,https://www.stops.lt/vilnius/index.html#stop/2638,,
6244,4007,"Sakalaičių st.","link miesto",54.61265,25.27545,https://www.stops.lt/vilnius/index.html#stop/4007,,
6256,2711,"Salininkai","link Eišiškių pl.",54.60566,25.25161,https://www.stops.lt/vilnius/index.html#stop/2711,,
6257,2710,"Salininkai","link Salininkų",54.60565,25.25118,https://www.stops.lt/vilnius/index.html#stop/2710,,
6240,2637,"Salininkų sodai","iš miesto",54.61803,25.28348,https://www.stops.lt/vilnius/index.html#stop/2637,,
6241,4006,"Salininkų sodai","link miesto",54.61823,25.28465,https://www.stops.lt/vilnius/index.html#stop/4006,,
6248,2714,"Vilniaus st.","iš miesto",54.60566,25.26949,https://www.stops.lt/vilnius/index.html#stop/2714,,
6249,2815,"Vilniaus st.","link stoties",54.60611,25.27069,https://www.stops.lt/vilnius/index.html#stop/2815,,
9757,2732,"Avinėlių st.","iš miesto",54.60081,25.27358,https://www.stops.lt/vilnius/index.html#stop/2732,,
9759,2733,"Avinėlių st.","link miesto",54.60091,25.27383,https://www.stops.lt/vilnius/index.html#stop/2733,,
17944,2655,"Pripetės st.","link Rudaminos",54.62936,25.30463,https://www.stops.lt/vilnius/index.html#stop/2655,,
17945,2656,"Pripetės st.","link stoties",54.62968,25.30473,https://www.stops.lt/vilnius/index.html#stop/2656,,
9740,2731,"Salininkai","link miesto",54.60621,25.25050,https://www.stops.lt/vilnius/index.html#stop/2731,,
8329,2646,"Pupinė","iš miesto",54.62137,25.29469,https://www.stops.lt/vilnius/index.html#stop/2646,,
8330,2647,"Pupinė","link miesto",54.62153,25.29581,https://www.stops.lt/vilnius/index.html#stop/2647,,
9003,2719,"Salininkai","iš miesto",54.60589,25.24960,https://www.stops.lt/vilnius/index.html#stop/2719,,
370,2105,"Bajorų sodai","įlaipinimas",54.75762,25.25671,https://www.stops.lt/vilnius/index.html#stop/2105,,
6778,2107,"Akademijos st.","link centro",54.75262,25.27066,https://www.stops.lt/vilnius/index.html#stop/2107,,
6774,2131,"Maumedžių st.","link centro",54.74065,25.26436,https://www.stops.lt/vilnius/index.html#stop/2131,,
6775,2132,"Maumedžių st.","iš centro",54.74108,25.26437,https://www.stops.lt/vilnius/index.html#stop/2132,,
6503,2116,"Žaliųjų Ežerų st.","link centro",54.74855,25.27913,https://www.stops.lt/vilnius/index.html#stop/2116,,
7046,2110,"Jono Kairiūkščio st.","iš centro",54.75718,25.26991,https://www.stops.lt/vilnius/index.html#stop/2110,,
7047,2109,"Jono Kairiūkščio st.","link centro",54.75705,25.27026,https://www.stops.lt/vilnius/index.html#stop/2109,,
1115,2111,"Visoriai","įlaipinimas",54.75781,25.26474,https://www.stops.lt/vilnius/index.html#stop/2111,,
7968,2144,"Akademijos st.","iš centro",54.75352,25.26838,https://www.stops.lt/vilnius/index.html#stop/2144,,
7052,2133,"Chemijos institutas","link centro",54.75385,25.26385,https://www.stops.lt/vilnius/index.html#stop/2133,,
6783,2118,"Molėtų plentas","iš centro",54.75031,25.27754,https://www.stops.lt/vilnius/index.html#stop/2118,,
7980,2143,"Akademijos st.","iš centro",54.75391,25.27025,https://www.stops.lt/vilnius/index.html#stop/2143,,
7094,5107,"Vanaginė","link centro",54.77380,25.27197,https://www.stops.lt/vilnius/index.html#stop/5107,,
7095,5106,"Vanaginė","link Riešės",54.77539,25.27291,https://www.stops.lt/vilnius/index.html#stop/5106,,
7826,2134,"Muzikų st.","iš centro",54.75921,25.28157,https://www.stops.lt/vilnius/index.html#stop/2134,,
7827,2135,"Muzikų st.","link centro",54.75832,25.28103,https://www.stops.lt/vilnius/index.html#stop/2135,,
6526,2121,"Santariškės","link centro",54.75200,25.27979,https://www.stops.lt/vilnius/index.html#stop/2121,,
6532,2122,"Santariškės","iš centro",54.75286,25.28031,https://www.stops.lt/vilnius/index.html#stop/2122,,
7828,2136,"Santariškių žiedas","išlaipinimas",54.76359,25.28252,https://www.stops.lt/vilnius/index.html#stop/2136,,
7830,2137,"Santariškių žiedas","įlaipinimas",54.76370,25.28215,https://www.stops.lt/vilnius/index.html#stop/2137,,
6533,2123,"Vaikų ligoninė","įlaipinimas",54.75633,25.28131,https://www.stops.lt/vilnius/index.html#stop/2123,,
7831,2138,"Vaikų ligoninė","link centro",54.75551,25.28054,https://www.stops.lt/vilnius/index.html#stop/2138,,
6525,2120,"Žaliųjų Ežerų st.","iš centro",54.75062,25.27982,https://www.stops.lt/vilnius/index.html#stop/2120,,
8326,2141,"Akademijos st.","link centro",54.75263,25.27239,https://www.stops.lt/vilnius/index.html#stop/2141,,
18018,2139,"Chemijos institutas","iš miesto",54.75392,25.26381,https://www.stops.lt/vilnius/index.html#stop/2139,,
8327,2117,"Molėtų plentas","link centro",54.74975,25.27810,https://www.stops.lt/vilnius/index.html#stop/2117,,
16649,2136a,"Santariškių žiedas","išlaipinimas",54.76262,25.28220,https://www.stops.lt/vilnius/index.html#stop/2136a,,
8716,2147,"Vaikų ligoninė","iš centro",54.75613,25.28085,https://www.stops.lt/vilnius/index.html#stop/2147,,
10244,2156,"Vaikų ligoninė","išlaipinimas",54.75524,25.28088,https://www.stops.lt/vilnius/index.html#stop/2156,,
16627,2127,"Petro Baublio st.","iš centro",54.75086,25.28497,https://www.stops.lt/vilnius/index.html#stop/2127,,
16628,2125b,"Petro Baublio st.","link centro",54.75052,25.28355,https://www.stops.lt/vilnius/index.html#stop/2125b,,
7278,0441,"Karaliaus Mindaugo tiltas","iš centro",54.68822,25.28900,https://www.stops.lt/vilnius/index.html#stop/0441,,
6714,0416,"Aušros vartai","link stoties",54.67368,25.28949,https://www.stops.lt/vilnius/index.html#stop/0416,,
5892,0432,"Bernardinų sodas","link centro",54.68497,25.29110,https://www.stops.lt/vilnius/index.html#stop/0432,,
5893,0431,"Bernardinų sodas","iš centro",54.68472,25.29025,https://www.stops.lt/vilnius/index.html#stop/0431,,
5355,5153,"Bazilijonų st.","link Aušros vartų g.",54.67408,25.28657,https://www.stops.lt/vilnius/index.html#stop/5153,,
7840,0443,"Gervėčių st.","link Olandų žiedo",54.67390,25.29923,https://www.stops.lt/vilnius/index.html#stop/0443,,
5430,0412,"Gėlių st.","link stoties",54.67424,25.28366,https://www.stops.lt/vilnius/index.html#stop/0412,,
5605,0408,"Trakų st.","link centro",54.68004,25.27628,https://www.stops.lt/vilnius/index.html#stop/0408,,
5941,1302,"Pelesos st.","iš stoties",54.67108,25.29127,https://www.stops.lt/vilnius/index.html#stop/1302,,
5942,1303,"Pelesos st.","link stoties",54.67140,25.29175,https://www.stops.lt/vilnius/index.html#stop/1303,,
5944,1305,"Stadionas","iš stoties",54.66756,25.29710,https://www.stops.lt/vilnius/index.html#stop/1305,,
5945,1304,"Stadionas","link stoties",54.66848,25.29639,https://www.stops.lt/vilnius/index.html#stop/1304,,
407,0429,"Dailės akademija","link centro",54.68212,25.29297,https://www.stops.lt/vilnius/index.html#stop/0429,,
5894,0430,"Dailės akademija","iš centro",54.68401,25.29287,https://www.stops.lt/vilnius/index.html#stop/0430,,
7123,0427,"Užupio st.","iš centro",54.67994,25.29236,https://www.stops.lt/vilnius/index.html#stop/0427,,
7124,0426,"Užupio st.","link centro",54.67991,25.29266,https://www.stops.lt/vilnius/index.html#stop/0426,,
5358,0417,"Aušros vartai","iš stoties",54.67473,25.29278,https://www.stops.lt/vilnius/index.html#stop/0417,,
6574,0436,"Polocko st.","link stoties",54.68270,25.31266,https://www.stops.lt/vilnius/index.html#stop/0436,,
6008,0529,"Panevėžio st.","iš stoties",54.66793,25.28368,https://www.stops.lt/vilnius/index.html#stop/0529,,
6009,1509,"Panevėžio st.","link stoties",54.66814,25.28476,https://www.stops.lt/vilnius/index.html#stop/1509,,
6005,0528,"Pelesos st.","link Dzūkų g.",54.67085,25.28921,https://www.stops.lt/vilnius/index.html#stop/0528,,
6006,1301,"Pelesos st.","iš stoties",54.67091,25.28961,https://www.stops.lt/vilnius/index.html#stop/1301,,
5345,0409,"MO muziejus","link stoties",54.67934,25.27802,https://www.stops.lt/vilnius/index.html#stop/0409,,
5346,0410,"MO muziejus","link centro",54.67902,25.27855,https://www.stops.lt/vilnius/index.html#stop/0410,,
5339,0407,"Reformatų st.","iš centro",54.68117,25.27731,https://www.stops.lt/vilnius/index.html#stop/0407,,
5432,0406,"Reformatų st.","link centro",54.68149,25.27740,https://www.stops.lt/vilnius/index.html#stop/0406,,
6834,0413,"Rūdninkų st.","link centro",54.67454,25.28492,https://www.stops.lt/vilnius/index.html#stop/0413,,
5349,0411,"Vingriai","link stoties",54.67665,25.28086,https://www.stops.lt/vilnius/index.html#stop/0411,,
5902,0434,"Bernardinų kapinės","iš centro",54.68145,25.30538,https://www.stops.lt/vilnius/index.html#stop/0434,,
5904,0435,"Bernardinų st.","iš centro",54.68200,25.31198,https://www.stops.lt/vilnius/index.html#stop/0435,,
5901,0433,"Užupis","iš centro",54.68121,25.30076,https://www.stops.lt/vilnius/index.html#stop/0433,,
5360,0420,"Misionierių st.","iš stoties",54.67660,25.29735,https://www.stops.lt/vilnius/index.html#stop/0420,,
5428,0421,"Misionierių st.","link stoties",54.67662,25.29652,https://www.stops.lt/vilnius/index.html#stop/0421,,
946,0423,"Subačiaus st.","link centro",54.67723,25.30249,https://www.stops.lt/vilnius/index.html#stop/0423,,
5362,0422,"Subačiaus st.","iš centro",54.67701,25.30362,https://www.stops.lt/vilnius/index.html#stop/0422,,
5854,1201,"Zarasų st.","link Markučių",54.67624,25.31040,https://www.stops.lt/vilnius/index.html#stop/1201,,
5855,1202,"Zarasų st.","link centro",54.67658,25.30940,https://www.stops.lt/vilnius/index.html#stop/1202,,
5771,0403,"Kalnų parkas","link centro",54.68938,25.29450,https://www.stops.lt/vilnius/index.html#stop/0403,,
6573,0404,"Kalnų parkas","iš centro",54.68965,25.29581,https://www.stops.lt/vilnius/index.html#stop/0404,,
5768,0401,"Šv. Petro ir Povilo bažnyčia","link centro",54.69301,25.30313,https://www.stops.lt/vilnius/index.html#stop/0401,,
5770,0402,"Šv. Petro ir Povilo bažnyčia","iš centro",54.69275,25.30315,https://www.stops.lt/vilnius/index.html#stop/0402,,
7841,0444,"Gervėčių st.","link stoties",54.67365,25.29757,https://www.stops.lt/vilnius/index.html#stop/0444,,
9313,0446,"Bazilijonų st.","link Rotušės",54.67442,25.28595,https://www.stops.lt/vilnius/index.html#stop/0446,,
15581,0440,"Aušros vartai","link stoties",54.67417,25.28808,https://www.stops.lt/vilnius/index.html#stop/0440,,
9013,0247,"Rotušė","visos kryptys",54.67823,25.28634,https://www.stops.lt/vilnius/index.html#stop/0247,,
8821,0445,"Ramybės st.","iš stoties",54.67203,25.29905,https://www.stops.lt/vilnius/index.html#stop/0445,,
17352,0449a,"Rotušė","į stotį",54.67772,25.28639,https://www.stops.lt/vilnius/index.html#stop/0449a,,
18061,0403a,"Kalnų parkas","link centro",54.69033,25.29709,https://www.stops.lt/vilnius/index.html#stop/0403a,,
9012,0245a,"Vokiečių st.","link Rotušės",54.68057,25.28274,https://www.stops.lt/vilnius/index.html#stop/0245a,,
393,1910,"Buivydiškių st.","link Pašilaičių",54.71394,25.23743,https://www.stops.lt/vilnius/index.html#stop/1910,,
394,1909,"Buivydiškių st.","link Šeškinės",54.71322,25.23789,https://www.stops.lt/vilnius/index.html#stop/1909,,
855,1911,"Rygos st.","link Šeškinės",54.71575,25.23211,https://www.stops.lt/vilnius/index.html#stop/1911,,
5074,1908,"Vaikų kaimas","link Justiniškių",54.70949,25.24035,https://www.stops.lt/vilnius/index.html#stop/1908,,
6933,1924,"Gelvonėlio st.","link centro",54.71443,25.25677,https://www.stops.lt/vilnius/index.html#stop/1924,,
6934,1925,"Gelvonėlio st.","iš centro",54.71505,25.25741,https://www.stops.lt/vilnius/index.html#stop/1925,,
6928,1927,"Gelvonų st.","link centro",54.71764,25.25763,https://www.stops.lt/vilnius/index.html#stop/1927,,
6929,1928,"Gelvonų st.","iš centro",54.71838,25.25767,https://www.stops.lt/vilnius/index.html#stop/1928,,
3512,1930,"Šeškinės kalvos","link Fabijoniškių",54.71157,25.25700,https://www.stops.lt/vilnius/index.html#stop/1930,,
6478,3219,"Čiobiškio st.","link centro",54.71893,25.23200,https://www.stops.lt/vilnius/index.html#stop/3219,,
6479,1913,"Čiobiškio st.","link Pašilaičių",54.71946,25.23292,https://www.stops.lt/vilnius/index.html#stop/1913,,
5067,1912,"Rygos st.","link Pašilaičių",54.71687,25.23153,https://www.stops.lt/vilnius/index.html#stop/1912,,
6477,1802,"Rygos st.","link Lazdynų",54.71560,25.23019,https://www.stops.lt/vilnius/index.html#stop/1802,,
6937,1931,"Šeškinės kalvos","link Ukmergės g.",54.71085,25.25622,https://www.stops.lt/vilnius/index.html#stop/1931,,
7017,1923,"Šeškinės kalvos","link Žirmūnų",54.71109,25.25819,https://www.stops.lt/vilnius/index.html#stop/1923,,
904,1906,"Siesikų st.","link Buivydiškių g.",54.70980,25.24424,https://www.stops.lt/vilnius/index.html#stop/1906,,
905,1905,"Siesikų st.","link Ukmergės g.",54.70985,25.24636,https://www.stops.lt/vilnius/index.html#stop/1905,,
1069,1907,"Vaikų kaimas","link Ukmergės g.",54.70877,25.24118,https://www.stops.lt/vilnius/index.html#stop/1907,,
6940,1926,"Paberžės st.","link Fabijoniškių",54.71616,25.25481,https://www.stops.lt/vilnius/index.html#stop/1926,,
6941,1929,"Paberžės st.","link žiedo",54.71617,25.25358,https://www.stops.lt/vilnius/index.html#stop/1929,,
5209,1918,"Dūkštų st.","iš centro",54.71500,25.24638,https://www.stops.lt/vilnius/index.html#stop/1918,,
7003,1917,"Dūkštų st.","link centro",54.71486,25.24528,https://www.stops.lt/vilnius/index.html#stop/1917,,
733,1920,"Musninkų st.","link centro",54.71665,25.24386,https://www.stops.lt/vilnius/index.html#stop/1920,,
5206,1933,"Musninkų st.","įlaipinimas",54.71690,25.24484,https://www.stops.lt/vilnius/index.html#stop/1933,,
5208,1919,"Musninkų st.","iš centro",54.71662,25.24452,https://www.stops.lt/vilnius/index.html#stop/1919,,
1042,1922,"Ukmergės st.","link Paberžės g.",54.71328,25.25166,https://www.stops.lt/vilnius/index.html#stop/1922,,
5214,1903,"Šeškinė","link centro",54.70963,25.25157,https://www.stops.lt/vilnius/index.html#stop/1903,,
5290,1902,"Šeškinė","iš centro",54.70976,25.25213,https://www.stops.lt/vilnius/index.html#stop/1902,,
986,1921,"Šeškinės poliklinika","iš centro",54.71606,25.24745,https://www.stops.lt/vilnius/index.html#stop/1921,,
5452,1932,"Šeškinės poliklinika","link centro",54.71545,25.24715,https://www.stops.lt/vilnius/index.html#stop/1932,,
1039,1916,"Ukmergės st.","link Perkūnkiemio",54.71245,25.24974,https://www.stops.lt/vilnius/index.html#stop/1916,,
5212,1915,"Ukmergės st.","link centro",54.71194,25.24942,https://www.stops.lt/vilnius/index.html#stop/1915,,
5294,1914,"Ukmergės st.","link Laisvės pr.",54.71201,25.24880,https://www.stops.lt/vilnius/index.html#stop/1914,,
5985,4313,"Skaidiškės","iš miesto",54.60583,25.38387,https://www.stops.lt/vilnius/index.html#stop/4313,,
5986,4314,"Skaidiškės","link miesto",54.60640,25.38357,https://www.stops.lt/vilnius/index.html#stop/4314,,
6137,4316,"Skaidiškės","iš miesto",54.60569,25.38255,https://www.stops.lt/vilnius/index.html#stop/4316,,
5988,4312,"Skaidiškių žiedas","link miesto",54.60943,25.38599,https://www.stops.lt/vilnius/index.html#stop/4312,,
863,4315,"Skaistės st.","link stoties",54.60573,25.39316,https://www.stops.lt/vilnius/index.html#stop/4315,,
6844,0914,"Broniaus Laurinavičiaus skveras","iš centro",54.70419,25.28405,https://www.stops.lt/vilnius/index.html#stop/0914,,
5351,0707,"Giedraičių st.","link centro",54.70734,25.28494,https://www.stops.lt/vilnius/index.html#stop/0707,,
6845,0916,"Giedraičių st.","iš centro",54.70804,25.28550,https://www.stops.lt/vilnius/index.html#stop/0916,,
5481,0709,"Pramogų arena","link centro",54.71448,25.28664,https://www.stops.lt/vilnius/index.html#stop/0709,,
5861,0802,"Pramogų arena","iš centro",54.71626,25.28694,https://www.stops.lt/vilnius/index.html#stop/0802,,
5347,0708,"Tauragnų st.","link centro",54.71169,25.28625,https://www.stops.lt/vilnius/index.html#stop/0708,,
5469,0803,"Tauragnų st.","iš centro",54.71234,25.28672,https://www.stops.lt/vilnius/index.html#stop/0803,,
5467,0705,"Žalgirio st.","link centro",54.70308,25.28353,https://www.stops.lt/vilnius/index.html#stop/0705,,
6788,0915,"Žalgirio st.","link Žaliųjų ežerų",54.70436,25.28434,https://www.stops.lt/vilnius/index.html#stop/0915,,
5498,0706,"Žalgirio st.","link Geležinio Vilko g.",54.70390,25.28302,https://www.stops.lt/vilnius/index.html#stop/0706,,
17313,0712,"Kernavės st.","liš centro",54.70204,25.27568,https://www.stops.lt/vilnius/index.html#stop/0712,,
17315,0713,"Kernavės st.","į centrą",54.70129,25.27491,https://www.stops.lt/vilnius/index.html#stop/0713,,
17317,0715,"Krokuvos st.","",54.69887,25.27435,https://www.stops.lt/vilnius/index.html#stop/0715,,
17323,0717,"Krokuvos st.","",54.69846,25.27328,https://www.stops.lt/vilnius/index.html#stop/0717,,
17495,0718,"Šnipiškės","",54.69947,25.26883,https://www.stops.lt/vilnius/index.html#stop/0718,,
8460,0825,"Ozo žiedas","link Pramogų arenos",54.71465,25.27770,https://www.stops.lt/vilnius/index.html#stop/0825,,
8462,0827,"Ozo žiedas","išlaipinimas",54.71539,25.27730,https://www.stops.lt/vilnius/index.html#stop/0827,,
17318,0716,"Oršos st.","",54.70417,25.27691,https://www.stops.lt/vilnius/index.html#stop/0716,,
7615,3910,"Raudonbalė","link miesto",54.74939,25.18096,https://www.stops.lt/vilnius/index.html#stop/3910,,
8043,5006,"Tarandė","link centro",54.74938,25.20812,https://www.stops.lt/vilnius/index.html#stop/5006,,
7081,5005,"Bukiškių st.","link centro",54.75758,25.20566,https://www.stops.lt/vilnius/index.html#stop/5005,,
7078,5003,"Medelynas","iš centro",54.75095,25.21377,https://www.stops.lt/vilnius/index.html#stop/5003,,
7079,5004,"Medelynas","link centro",54.74959,25.21489,https://www.stops.lt/vilnius/index.html#stop/5004,,
7076,5001,"Pavilionys","iš centro",54.74187,25.22410,https://www.stops.lt/vilnius/index.html#stop/5001,,
7077,5002,"Pavilionys","link centro",54.74197,25.22351,https://www.stops.lt/vilnius/index.html#stop/5002,,
16565,5020,"Gegliškių st.","iš centro",54.75011,25.18665,https://www.stops.lt/vilnius/index.html#stop/5020,,
16563,5019,"Juozo Kamarausko st.","iš centro",54.75248,25.19173,https://www.stops.lt/vilnius/index.html#stop/5019,,
18270,5019a,"Juozo Kamarausko st.","į centrą",54.75087,25.19096,https://www.stops.lt/vilnius/index.html#stop/5019a,,
8447,5014,"Kelmiškių st.","link centro",54.74907,25.17862,https://www.stops.lt/vilnius/index.html#stop/5014,,
16561,5018,"Kelpių st.","iš centro",54.75556,25.19598,https://www.stops.lt/vilnius/index.html#stop/5018,,
18271,5018a,"Kelpių st.","į centrą",54.75531,25.19607,https://www.stops.lt/vilnius/index.html#stop/5018a,,
10250,4117,"Valai","link miesto",54.70001,25.06367,https://www.stops.lt/vilnius/index.html#stop/4117,,
18526,6016,"Fabriko st.","link miesto",54.62572,25.06645,https://www.stops.lt/vilnius/index.html#stop/6016,,
16863,6007,"Dobūklė","link miesto",54.61973,25.09049,https://www.stops.lt/vilnius/index.html#stop/6007,,
16864,6008,"Dobūklė","iš miesto",54.61980,25.08953,https://www.stops.lt/vilnius/index.html#stop/6008,,
16861,6005,"Lentvario kryžkelė","",54.61951,25.06831,https://www.stops.lt/vilnius/index.html#stop/6005,,
4516,3109,"Trakų Vokė","link miesto",54.62400,25.11253,https://www.stops.lt/vilnius/index.html#stop/3109,,
7059,3106,"Trakų Vokė","iš miesto",54.62368,25.11000,https://www.stops.lt/vilnius/index.html#stop/3106,,
7062,3101,"Eduardo Andrė st.","iš miesto",54.62843,25.10818,https://www.stops.lt/vilnius/index.html#stop/3101,,
4456,3105,"Gunkliškių st.","link E.Andrė st.",54.62730,25.10127,https://www.stops.lt/vilnius/index.html#stop/3105,,
7724,3110,"Bičiulių st.","link miesto",54.60393,25.13419,https://www.stops.lt/vilnius/index.html#stop/3110,,
7725,3111,"Bičiulių st.","iš miesto",54.60313,25.13479,https://www.stops.lt/vilnius/index.html#stop/3111,,
7804,3112,"Emilijos Pliaterytės st.","link miesto",54.61762,25.11657,https://www.stops.lt/vilnius/index.html#stop/3112,,
7805,3113,"Emilijos Pliaterytės st.","iš miesto",54.61700,25.11674,https://www.stops.lt/vilnius/index.html#stop/3113,,
7068,3102,"Juodbaliai","link miesto",54.61208,25.12092,https://www.stops.lt/vilnius/index.html#stop/3102,,
7069,3103,"Juodbaliai","iš miesto",54.61189,25.12084,https://www.stops.lt/vilnius/index.html#stop/3103,,
4506,3107,"Juozo Tiškevičiaus st.","iš miesto",54.62135,25.11329,https://www.stops.lt/vilnius/index.html#stop/3107,,
4507,3108,"Juozo Tiškevičiaus st.","link miesto",54.62198,25.11288,https://www.stops.lt/vilnius/index.html#stop/3108,,
7726,3114,"Metropolis","iš miesto",54.60831,25.12912,https://www.stops.lt/vilnius/index.html#stop/3114,,
7727,3115,"Metropolis","link miesto",54.60870,25.12891,https://www.stops.lt/vilnius/index.html#stop/3115,,
5900,0428,"Vilnios st.","iš centro",54.68024,25.29365,https://www.stops.lt/vilnius/index.html#stop/0428,,
6966,2704,"Ąžuolijai","link miesto",54.62186,25.24387,https://www.stops.lt/vilnius/index.html#stop/2704,,
6968,5117,"Ąžuolijai","iš miesto",54.62168,25.24273,https://www.stops.lt/vilnius/index.html#stop/5117,,
6963,2702,"Eišiškių sodai","iš miesto",54.62740,25.24954,https://www.stops.lt/vilnius/index.html#stop/2702,,
6964,2703,"Eišiškių sodai","link miesto",54.62625,25.24947,https://www.stops.lt/vilnius/index.html#stop/2703,,
6974,5108,"Raisteliai","iš miesto",54.61123,25.21761,https://www.stops.lt/vilnius/index.html#stop/5108,,
6975,5109,"Raisteliai","link miesto",54.61139,25.21812,https://www.stops.lt/vilnius/index.html#stop/5109,,
6967,2705,"Ąžuolijai","iš miesto",54.62026,25.24455,https://www.stops.lt/vilnius/index.html#stop/2705,,
6956,2717,"Dieveniškių st.","link miesto",54.63383,25.24933,https://www.stops.lt/vilnius/index.html#stop/2717,,
6957,2716,"Dieveniškių st.","iš miesto",54.63407,25.24880,https://www.stops.lt/vilnius/index.html#stop/2716,,
6959,2701,"Užusienis","įlaipinimas",54.63298,25.23943,https://www.stops.lt/vilnius/index.html#stop/2701,,
5756,2816,"Šaltinio st.","link žiedo",54.60143,25.18212,https://www.stops.lt/vilnius/index.html#stop/2816,,
5757,2817,"Šaltinio st.","link miesto",54.60171,25.18311,https://www.stops.lt/vilnius/index.html#stop/2817,,
3575,2501,"Vaidotai","įlaipinimas",54.59876,25.17635,https://www.stops.lt/vilnius/index.html#stop/2501,,
9773,2824,"Krantinės st.","link Vaidotų",54.60412,25.19113,https://www.stops.lt/vilnius/index.html#stop/2824,,
9732,2502,"Vėjo st.","įlaipinimas",54.59597,25.17562,https://www.stops.lt/vilnius/index.html#stop/2502,,
6907,3546,"Balžio st.","link centro",54.79303,25.42904,https://www.stops.lt/vilnius/index.html#stop/3546,,
7471,3559,"Balžio st.","iš centro",54.79300,25.42967,https://www.stops.lt/vilnius/index.html#stop/3559,,
7470,3558,"Balžio žiedas","įlaipinimas",54.79419,25.43652,https://www.stops.lt/vilnius/index.html#stop/3558,,
6905,3544,"Miškas","iš centro",54.78333,25.40463,https://www.stops.lt/vilnius/index.html#stop/3544,,
6906,3545,"Miškas","link centro",54.78307,25.40316,https://www.stops.lt/vilnius/index.html#stop/3545,,
4426,3554,"Svajonių st.","link centro",54.74065,25.31469,https://www.stops.lt/vilnius/index.html#stop/3554,,
5491,3501,"Oskaro Milašiaus st.","link Žirmūnų",54.72783,25.31438,https://www.stops.lt/vilnius/index.html#stop/3501,,
6084,3514,"Grybautojų st.","link Nemenčinės pl.",54.73295,25.31820,https://www.stops.lt/vilnius/index.html#stop/3514,,
6082,3515,"Žuvėdrų st.","link Nemenčinės pl.",54.73140,25.32414,https://www.stops.lt/vilnius/index.html#stop/3515,,
6083,3516,"Žuvėdrų st.","link Grybautojų g.",54.73133,25.32467,https://www.stops.lt/vilnius/index.html#stop/3516,,
7936,3560,"Laurų st.","link centro",54.78949,25.38327,https://www.stops.lt/vilnius/index.html#stop/3560,,
6110,3502,"Lizdeikos st.","link centro",54.72872,25.31366,https://www.stops.lt/vilnius/index.html#stop/3502,,
6109,3503,"Rato st.","link centro",54.73082,25.30869,https://www.stops.lt/vilnius/index.html#stop/3503,,
6163,3547,"Antaviliai","iš centro",54.79863,25.39775,https://www.stops.lt/vilnius/index.html#stop/3547,,
6164,3548,"Antaviliai","link centro",54.79822,25.39651,https://www.stops.lt/vilnius/index.html#stop/3548,,
6140,3522,"Ežerėlių st.","iš centro",54.73855,25.34438,https://www.stops.lt/vilnius/index.html#stop/3522,,
6142,3521,"Ežerėlių st.","link centro",54.73784,25.34252,https://www.stops.lt/vilnius/index.html#stop/3521,,
3610,3550,"Jono Biliūno st.","iš centro",54.79425,25.39154,https://www.stops.lt/vilnius/index.html#stop/3550,,
6162,3551,"Jono Biliūno st.","link centro",54.79371,25.39069,https://www.stops.lt/vilnius/index.html#stop/3551,,
6154,3540,"Karačiūnai","link centro",54.77234,25.38218,https://www.stops.lt/vilnius/index.html#stop/3540,,
6155,3541,"Karačiūnai","iš centro",54.77306,25.38303,https://www.stops.lt/vilnius/index.html#stop/3541,,
950,3520,"Kiškių st.","link Nemenčinės",54.73457,25.33814,https://www.stops.lt/vilnius/index.html#stop/3520,,
6141,3519,"Kiškių st.","link centro",54.73383,25.33664,https://www.stops.lt/vilnius/index.html#stop/3519,,
6079,1123,"Lakštingalų st.","link centro",54.72880,25.32883,https://www.stops.lt/vilnius/index.html#stop/1123,,
6081,3518,"Lakštingalų st.","link Nemenčinės",54.72998,25.33112,https://www.stops.lt/vilnius/index.html#stop/3518,,
6143,3553,"Nugalėtojų st.","iš centro",54.74176,25.34931,https://www.stops.lt/vilnius/index.html#stop/3553,,
6144,3552,"Nugalėtojų st.","link centro",54.74172,25.34857,https://www.stops.lt/vilnius/index.html#stop/3552,,
6159,3542,"Šilas","link centro",54.78204,25.38346,https://www.stops.lt/vilnius/index.html#stop/3542,,
6160,3543,"Šilas","iš centro",54.78313,25.38376,https://www.stops.lt/vilnius/index.html#stop/3543,,
6148,3537,"Smėlynė","iš centro",54.75471,25.36580,https://www.stops.lt/vilnius/index.html#stop/3537,,
6149,3536,"Smėlynė","link centro",54.75437,25.36489,https://www.stops.lt/vilnius/index.html#stop/3536,,
6146,3534,"Turniškių miškas","link centro",54.74815,25.35776,https://www.stops.lt/vilnius/index.html#stop/3534,,
6147,3535,"Turniškių miškas","iš centro",54.74838,25.35849,https://www.stops.lt/vilnius/index.html#stop/3535,,
6152,3538,"Veržuvos st.","link centro",54.76149,25.37262,https://www.stops.lt/vilnius/index.html#stop/3538,,
6153,3539,"Veržuvos st.","iš centro",54.76224,25.37405,https://www.stops.lt/vilnius/index.html#stop/3539,,
976,3533,"Aukštoji Veržuva","įlaipinimas",54.74999,25.42812,https://www.stops.lt/vilnius/index.html#stop/3533,,
6901,3532,"Vaguva","iš centro",54.74711,25.41714,https://www.stops.lt/vilnius/index.html#stop/3532,,
6902,3531,"Vaguva","link centro",54.74725,25.41687,https://www.stops.lt/vilnius/index.html#stop/3531,,
6100,3507,"Bruknių st.","link centro",54.74355,25.30345,https://www.stops.lt/vilnius/index.html#stop/3507,,
1028,3510,"Turniškės","į miestą",54.74512,25.32753,https://www.stops.lt/vilnius/index.html#stop/3510,,
6107,3504,"1-asis paplūdimys","link Antakalnio",54.73311,25.29605,https://www.stops.lt/vilnius/index.html#stop/3504,,
6104,3506,"2-asis paplūdimys","link Antakalnio",54.74239,25.29460,https://www.stops.lt/vilnius/index.html#stop/3506,,
6106,3505,"Vaidilutės st.","link centro",54.73604,25.29455,https://www.stops.lt/vilnius/index.html#stop/3505,,
6095,3509,"Meškeriotojų st.","link Turniškių g.",54.74585,25.31977,https://www.stops.lt/vilnius/index.html#stop/3509,,
6096,3508,"Meškeriotojų st.","link Grybautojų g.",54.74621,25.32017,https://www.stops.lt/vilnius/index.html#stop/3508,,
16147,3564,"Lizdeikos st.","link Turniškių",54.72898,25.31338,https://www.stops.lt/vilnius/index.html#stop/3564,,
16148,3565,"Rato st.","link Turniškių",54.73061,25.30952,https://www.stops.lt/vilnius/index.html#stop/3565,,
18104,3539a,"Veržuvos st.","iš centro",54.76372,25.37525,https://www.stops.lt/vilnius/index.html#stop/3539a,,
18159,3538a,"Veržuvos st.","link centro",54.76139,25.37292,https://www.stops.lt/vilnius/index.html#stop/3538a,,
16152,3568,"Bruknių st.","link Turniškių",54.74326,25.30429,https://www.stops.lt/vilnius/index.html#stop/3568,,
16153,3569,"Svajonių st.","link Turniškių",54.74109,25.31276,https://www.stops.lt/vilnius/index.html#stop/3569,,
16145,3500,"1-asis paplūdimys","iš centro",54.73265,25.29831,https://www.stops.lt/vilnius/index.html#stop/3500,,
16150,3567,"2-asis paplūdimys","link Turniškių",54.74190,25.29484,https://www.stops.lt/vilnius/index.html#stop/3567,,
16149,3566,"Vaidilutės st.","link Turniškių",54.73656,25.29460,https://www.stops.lt/vilnius/index.html#stop/3566,,
16155,3571,"Grybautojų st.","link Turniškių",54.73258,25.31774,https://www.stops.lt/vilnius/index.html#stop/3571,,
8094,2106,"Chemijos institutas","iš miesto",54.75508,25.26182,https://www.stops.lt/vilnius/index.html#stop/2106,,
8025,2245,"Birelių žiedas","įlaipinimas",54.82336,25.33030,https://www.stops.lt/vilnius/index.html#stop/2245,,
8085,2246,"Juozapiškės","iš miesto",54.80947,25.35237,https://www.stops.lt/vilnius/index.html#stop/2246,,
8086,2247,"Juozapiškės","link miesto",54.80698,25.35280,https://www.stops.lt/vilnius/index.html#stop/2247,,
8090,2227,"Naujaneriai","link Skirgiškių",54.80194,25.34928,https://www.stops.lt/vilnius/index.html#stop/2227,,
7343,5191,"Prašiškės","link miesto",54.76817,25.27152,https://www.stops.lt/vilnius/index.html#stop/5191,,
7374,5198,"Prašiškės","iš miesto",54.76860,25.27183,https://www.stops.lt/vilnius/index.html#stop/5198,,
7092,5116,"Skersinės st.","iš miesto",54.76518,25.27190,https://www.stops.lt/vilnius/index.html#stop/5116,,
7093,5115,"Skersinės st.","link miesto",54.76453,25.27160,https://www.stops.lt/vilnius/index.html#stop/5115,,
6816,2224,"Naujoji st.","iš miesto",54.76332,25.34632,https://www.stops.lt/vilnius/index.html#stop/2224,,
6817,2225,"Naujoji st.","link miesto",54.76349,25.34598,https://www.stops.lt/vilnius/index.html#stop/2225,,
6820,2217,"Ožkiniai","iš miesto",54.76718,25.36150,https://www.stops.lt/vilnius/index.html#stop/2217,,
6821,2216,"Ožkiniai","link miesto",54.76706,25.36011,https://www.stops.lt/vilnius/index.html#stop/2216,,
1144,2218,"Ožkinių žiedas","įlaipinimas",54.76844,25.36646,https://www.stops.lt/vilnius/index.html#stop/2218,,
6818,2215,"Staviškės","iš miesto",54.76398,25.35276,https://www.stops.lt/vilnius/index.html#stop/2215,,
6819,2214,"Staviškės","link miesto",54.76345,25.35162,https://www.stops.lt/vilnius/index.html#stop/2214,,
8012,2233,"Gulbinų st.","iš miesto",54.80584,25.31892,https://www.stops.lt/vilnius/index.html#stop/2233,,
8016,2234,"Gulbinų st.","link miesto",54.80560,25.31976,https://www.stops.lt/vilnius/index.html#stop/2234,,
8011,2235,"Pagubė","į miestą",54.80796,25.31320,https://www.stops.lt/vilnius/index.html#stop/2235,,
6810,2206,"Kremplių st.","iš miesto",54.76698,25.33586,https://www.stops.lt/vilnius/index.html#stop/2206,,
6811,2207,"Kremplių st.","link miesto",54.76725,25.33566,https://www.stops.lt/vilnius/index.html#stop/2207,,
738,2202,"Naujieji Verkiai","link miesto",54.75984,25.33217,https://www.stops.lt/vilnius/index.html#stop/2202,,
6808,2208,"Popieriaus st.","iš miesto",54.76987,25.33202,https://www.stops.lt/vilnius/index.html#stop/2208,,
6809,2209,"Popieriaus st.","link miesto",54.76996,25.33261,https://www.stops.lt/vilnius/index.html#stop/2209,,
1064,2205,"Vaikų darželis","link miesto",54.76256,25.33563,https://www.stops.lt/vilnius/index.html#stop/2205,,
6814,2204,"Vaikų darželis","iš miesto",54.76306,25.33591,https://www.stops.lt/vilnius/index.html#stop/2204,,
4777,2243,"Bireliai","iš miesto",54.82118,25.32066,https://www.stops.lt/vilnius/index.html#stop/2243,,
8024,2244,"Bireliai","link miesto",54.82099,25.32052,https://www.stops.lt/vilnius/index.html#stop/2244,,
8009,2230,"Diemedis","iš miesto",54.80323,25.32958,https://www.stops.lt/vilnius/index.html#stop/2230,,
8017,2231,"Diemedis","link miesto",54.80289,25.32974,https://www.stops.lt/vilnius/index.html#stop/2231,,
8008,2228,"Paežerys","iš miesto",54.80030,25.33611,https://www.stops.lt/vilnius/index.html#stop/2228,,
8018,2229,"Paežerys","link miesto",54.80012,25.33534,https://www.stops.lt/vilnius/index.html#stop/2229,,
8010,2237,"Sakališkės","iš miesto",54.81469,25.32187,https://www.stops.lt/vilnius/index.html#stop/2237,,
6800,2130,"Ežerėliai","iš miesto",54.76131,25.30666,https://www.stops.lt/vilnius/index.html#stop/2130,,
6801,2201,"Ežerėliai","link miesto",54.76255,25.31018,https://www.stops.lt/vilnius/index.html#stop/2201,,
8005,2238,"Krakiškės","iš miesto",54.79594,25.34992,https://www.stops.lt/vilnius/index.html#stop/2238,,
8021,2239,"Krakiškės","link miesto",54.79522,25.35003,https://www.stops.lt/vilnius/index.html#stop/2239,,
8004,2223,"Kryžiokai","iš miesto",54.79219,25.35118,https://www.stops.lt/vilnius/index.html#stop/2223,,
8022,2236,"Kryžiokai","link miesto",54.79161,25.35127,https://www.stops.lt/vilnius/index.html#stop/2236,,
8006,2226,"Naujaneriai","link miesto, Birelių",54.80173,25.34841,https://www.stops.lt/vilnius/index.html#stop/2226,,
6860,2220,"Ragučio st.","iš miesto",54.78076,25.34263,https://www.stops.lt/vilnius/index.html#stop/2220,,
6861,2219,"Ragučio st.","link miesto",54.78026,25.34204,https://www.stops.lt/vilnius/index.html#stop/2219,,
6803,2211,"Verkių bendruomenės namai","iš miesto",54.77033,25.32744,https://www.stops.lt/vilnius/index.html#stop/2211,,
6804,2210,"Verkių bendruomenės namai","link miesto",54.77002,25.32650,https://www.stops.lt/vilnius/index.html#stop/2210,,
6856,2213,"Verkių Riešė","iš miesto",54.77739,25.33811,https://www.stops.lt/vilnius/index.html#stop/2213,,
6857,2212,"Verkių Riešė","link miesto",54.77695,25.33699,https://www.stops.lt/vilnius/index.html#stop/2212,,
6797,2129,"Verkių rūmai","iš miesto",54.75236,25.29645,https://www.stops.lt/vilnius/index.html#stop/2129,,
6798,2128,"Verkių rūmai","link miesto",54.75224,25.29599,https://www.stops.lt/vilnius/index.html#stop/2128,,
8363,2252,"Pagubės sodai","iš miesto",54.80621,25.32679,https://www.stops.lt/vilnius/index.html#stop/2252,,
9001,2253,"Ąžuolynas","iš miesto",54.81125,25.32378,https://www.stops.lt/vilnius/index.html#stop/2253,,
9002,2254,"Ąžuolynas","link miesto",54.81099,25.32384,https://www.stops.lt/vilnius/index.html#stop/2254,,
8367,2250,"Pagubės sodai","link miesto",54.80599,25.32749,https://www.stops.lt/vilnius/index.html#stop/2250,,
8368,2251,"Pagubės sodai","iš miesto",54.80638,25.32727,https://www.stops.lt/vilnius/index.html#stop/2251,,
8364,2249,"Sakališkės","link miesto",54.81465,25.32173,https://www.stops.lt/vilnius/index.html#stop/2249,,
10554,2265,"Žaliojo Visalaukio st.","iš miesto",54.77860,25.34072,https://www.stops.lt/vilnius/index.html#stop/2265,,
10556,2267,"Žaliojo Visalaukio st.","link miesto",54.77863,25.34044,https://www.stops.lt/vilnius/index.html#stop/2267,,
7358,5196,"Giraitės st.","iš centro",54.66898,25.23783,https://www.stops.lt/vilnius/index.html#stop/5196,,
7359,5197,"Giraitės st.","link centro",54.66873,25.23817,https://www.stops.lt/vilnius/index.html#stop/5197,,
5778,0611,"Vinco Pietario st.","iš centro",54.67688,25.24579,https://www.stops.lt/vilnius/index.html#stop/0611,,
5779,0609,"Vingio parkas","iš centro",54.67280,25.23943,https://www.stops.lt/vilnius/index.html#stop/0609,,
5780,0610,"Vingio parkas","link centro",54.67405,25.24199,https://www.stops.lt/vilnius/index.html#stop/0610,,
5532,0606,"Gerosios Vilties st.","iš centro, autobusų",54.67080,25.24196,https://www.stops.lt/vilnius/index.html#stop/0606,,
5535,0607,"Gerosios Vilties st.","link centro, troleibusų",54.67040,25.24159,https://www.stops.lt/vilnius/index.html#stop/0607,,
7852,0603,"Savanorių prospektas","iš centro",54.67340,25.24700,https://www.stops.lt/vilnius/index.html#stop/0603,,
7853,0602a,"Savanorių prospektas","link centro",54.67403,25.24860,https://www.stops.lt/vilnius/index.html#stop/0602a,,
6366,0612,"Statybininkų st.","iš centro",54.67135,25.25735,https://www.stops.lt/vilnius/index.html#stop/0612,,
6410,0601,"Žemaitės st.","link stoties",54.67489,25.25194,https://www.stops.lt/vilnius/index.html#stop/0601,,
16770,0615,"Vinco Pietario st.","į centrą",54.67638,25.25014,https://www.stops.lt/vilnius/index.html#stop/0615,,
4686,5144,"Karveliškių kapinės","įlaipinimas",54.70931,25.10116,https://www.stops.lt/vilnius/index.html#stop/5144,,
7692,5144a,"Karveliškių kapinės","išlaipinimas",54.70928,25.10079,https://www.stops.lt/vilnius/index.html#stop/5144a,,
7698,3615,"Kriaučiūnai","iš miesto",54.71244,25.14919,https://www.stops.lt/vilnius/index.html#stop/3615,,
7699,3616,"Kriaučiūnai","link miesto",54.71200,25.15055,https://www.stops.lt/vilnius/index.html#stop/3616,,
7700,3617,"Papiškės","iš miesto",54.71607,25.13202,https://www.stops.lt/vilnius/index.html#stop/3617,,
7701,3618,"Papiškės","link miesto",54.71643,25.12997,https://www.stops.lt/vilnius/index.html#stop/3618,,
7702,3619,"Vaivadiškės","iš miesto",54.71746,25.11279,https://www.stops.lt/vilnius/index.html#stop/3619,,
7703,3620,"Vaivadiškės","link miesto",54.71720,25.11156,https://www.stops.lt/vilnius/index.html#stop/3620,,
7728,5199,"Panerių miškas","iš miesto",54.61641,25.22780,https://www.stops.lt/vilnius/index.html#stop/5199,,
7729,5200,"Panerių miškas","link miesto",54.61701,25.22945,https://www.stops.lt/vilnius/index.html#stop/5200,,
7657,2384regio,"Lyta","iš miesto",54.69852,25.49468,https://www.stops.lt/vilnius/index.html#stop/2384regio,,
7658,2385regio,"Lyta","į miestą",54.69808,25.49333,https://www.stops.lt/vilnius/index.html#stop/2385regio,,
7659,2386regio,"Mickūnai","galinė st.",54.70245,25.51650,https://www.stops.lt/vilnius/index.html#stop/2386regio,,
15180,5148,"Kalinas","iš miesto",54.80778,25.28081,https://www.stops.lt/vilnius/index.html#stop/5148,,
15182,5150,"Kalinas","link miesto",54.80772,25.28147,https://www.stops.lt/vilnius/index.html#stop/5150,,
10122,5217,"Ežero st.","link M.Riešės",54.80916,25.22766,https://www.stops.lt/vilnius/index.html#stop/5217,,
10123,5218,"Ežero st.","link D.Riešės",54.80892,25.22533,https://www.stops.lt/vilnius/index.html#stop/5218,,
10089,5207,"Mažoji Riešė","iš miesto",54.80259,25.20262,https://www.stops.lt/vilnius/index.html#stop/5207,,
10091,5208,"Mažoji Riešė","link miesto",54.80257,25.20164,https://www.stops.lt/vilnius/index.html#stop/5208,,
16183,5231,"1-asis Didžiasalis","",54.63861,25.39994,https://www.stops.lt/vilnius/index.html#stop/5231,,
16184,5232,"1-asis Didžiasalis","",54.64001,25.40136,https://www.stops.lt/vilnius/index.html#stop/5232,,
16176,5226,"2-asis Didžiasalis","",54.64802,25.40662,https://www.stops.lt/vilnius/index.html#stop/5226,,
16180,5228,"2-asis Didžiasalis","",54.64777,25.40621,https://www.stops.lt/vilnius/index.html#stop/5228,,
16182,5230,"Naujosios Vilnios sankryža","",54.65256,25.40902,https://www.stops.lt/vilnius/index.html#stop/5230,,
15181,5149,"Didieji Gulbinai","",54.80372,25.29594,https://www.stops.lt/vilnius/index.html#stop/5149,,
16179,5227,"Grigaičių žiedas","",54.66329,25.41498,https://www.stops.lt/vilnius/index.html#stop/5227,,
10095,5211,"Bendorėliai","iš miesto",54.79055,25.19565,https://www.stops.lt/vilnius/index.html#stop/5211,,
10096,5212,"Bendorėliai","link miesto",54.78926,25.19489,https://www.stops.lt/vilnius/index.html#stop/5212,,
10092,5209,"Bendoriai","iš miesto",54.79504,25.19782,https://www.stops.lt/vilnius/index.html#stop/5209,,
10094,5210,"Bendoriai","link miesto",54.79446,25.19728,https://www.stops.lt/vilnius/index.html#stop/5210,,
10099,5215,"Durpynas","iš miesto",54.77086,25.19584,https://www.stops.lt/vilnius/index.html#stop/5215,,
10100,5216,"Durpynas","link miesto",54.77031,25.19593,https://www.stops.lt/vilnius/index.html#stop/5216,,
10097,5213,"Klevinė","iš miesto",54.78070,25.19317,https://www.stops.lt/vilnius/index.html#stop/5213,,
10098,5214,"Klevinė","link miesto",54.77937,25.19272,https://www.stops.lt/vilnius/index.html#stop/5214,,
18076,3009regio,"Bratoniškės","iš miesto",54.85018,25.37385,https://www.stops.lt/vilnius/index.html#stop/3009regio,,
18079,2389regio,"S.b. „Pavasaris“","link miesto",54.85670,25.38278,https://www.stops.lt/vilnius/index.html#stop/2389regio,,
16169,5219,"9-asis kilometras","",54.65775,25.37406,https://www.stops.lt/vilnius/index.html#stop/5219,,
16171,5221,"9-asis kilometras","",54.65747,25.37603,https://www.stops.lt/vilnius/index.html#stop/5221,,
16175,5225,"Naujosios Vilnios sankryža","",54.65389,25.40869,https://www.stops.lt/vilnius/index.html#stop/5225,,
16173,5223,"Slėnis","",54.65753,25.39333,https://www.stops.lt/vilnius/index.html#stop/5223,,
16174,5224,"Slėnis","",54.65714,25.39439,https://www.stops.lt/vilnius/index.html#stop/5224,,
8828,5015,"Bukiškių st.","iš miesto",54.75776,25.20586,https://www.stops.lt/vilnius/index.html#stop/5015,,
6587,1815,"Kaukaro st.","link Pašilaičių",54.70665,25.21577,https://www.stops.lt/vilnius/index.html#stop/1815,,
6588,3220,"Kaukaro st.","link centro",54.70555,25.21579,https://www.stops.lt/vilnius/index.html#stop/3220,,
6597,1810,"Spaudos rūmai","link Justiniškių",54.70361,25.22353,https://www.stops.lt/vilnius/index.html#stop/1810,,
6591,1813,"Troleibusų parkas","visos kryptys",54.70363,25.21940,https://www.stops.lt/vilnius/index.html#stop/1813,,
6476,1803,"Pal. Jurgio Matulaičio bažnyčia","link Lazdynų",54.71178,25.22678,https://www.stops.lt/vilnius/index.html#stop/1803,,
6651,1818,"Pal. Jurgio Matulaičio bažnyčia","link Pašilaičių",54.71240,25.22824,https://www.stops.lt/vilnius/index.html#stop/1818,,
6475,1805,"Šaulių sąjunga","link Lazdynų",54.70909,25.22607,https://www.stops.lt/vilnius/index.html#stop/1805,,
4990,5166,"Sietyno st.","link Justiniškių",54.70037,25.22343,https://www.stops.lt/vilnius/index.html#stop/5166,,
5643,5176,"Sietyno st.","link Karoliniškių",54.69858,25.22124,https://www.stops.lt/vilnius/index.html#stop/5176,,
928,1811,"Spaudos rūmai","link Lazdynų",54.70263,25.22377,https://www.stops.lt/vilnius/index.html#stop/1811,,
5722,1809,"Spaudos rūmai","link Justiniškių",54.70417,25.22547,https://www.stops.lt/vilnius/index.html#stop/1809,,
5619,1819,"Viršuliškės","iš centro",54.70649,25.22676,https://www.stops.lt/vilnius/index.html#stop/1819,,
5620,1808,"Viršuliškės","link Lazdynų",54.70683,25.22623,https://www.stops.lt/vilnius/index.html#stop/1808,,
6472,1807,"Viršuliškės","link Pašilaičių",54.70849,25.22674,https://www.stops.lt/vilnius/index.html#stop/1807,,
4991,5167,"Sietyno st.","link Pilaitės",54.69967,25.22116,https://www.stops.lt/vilnius/index.html#stop/5167,,
7342,5190,"Sietyno st.","link centro",54.69893,25.22087,https://www.stops.lt/vilnius/index.html#stop/5190,,
7415,1820,"Teodoro Narbuto st.","iš centro",54.70018,25.22967,https://www.stops.lt/vilnius/index.html#stop/1820,,
7416,1718,"Teodoro Narbuto st.","link centro",54.69995,25.23016,https://www.stops.lt/vilnius/index.html#stop/1718,,
5613,1816,"Čiunės Sugiharos st.","link Laisvės pr.",54.70510,25.23405,https://www.stops.lt/vilnius/index.html#stop/1816,,
5614,1817,"Čiunės Sugiharos st.","link Ozo g.",54.70479,25.23527,https://www.stops.lt/vilnius/index.html#stop/1817,,
16691,1842,"Ąžuolyno st.","link Viršuliškių",54.70695,25.23769,https://www.stops.lt/vilnius/index.html#stop/1842,,
16692,1843,"Ąžuolyno st.","link Akropolio",54.70755,25.23795,https://www.stops.lt/vilnius/index.html#stop/1843,,
16425,3575,"Inovacijų pramonės parkas","",54.75313,25.41540,https://www.stops.lt/vilnius/index.html#stop/3575,,
16424,3574,"Miškadvaris","",54.75380,25.41403,https://www.stops.lt/vilnius/index.html#stop/3574,,
17952,3576,"Tujų st.","",54.75517,25.41665,https://www.stops.lt/vilnius/index.html#stop/3576,,
16422,3572,"Vismaliukai","",54.75228,25.41632,https://www.stops.lt/vilnius/index.html#stop/3572,,
7941,2402,"Burbiškės","iš centro",54.66680,25.25275,https://www.stops.lt/vilnius/index.html#stop/2402,,
5546,2410,"Baldai","link centro",54.65066,25.21825,https://www.stops.lt/vilnius/index.html#stop/2410,,
5588,2411,"Baldai","iš centro",54.64983,25.21614,https://www.stops.lt/vilnius/index.html#stop/2411,,
5587,2409,"Pakalniškių st.","iš centro",54.65416,25.22384,https://www.stops.lt/vilnius/index.html#stop/2409,,
857,2406,"Riovonys","link centro",54.65967,25.23359,https://www.stops.lt/vilnius/index.html#stop/2406,,
5573,2407,"Riovonys","iš centro",54.65893,25.23233,https://www.stops.lt/vilnius/index.html#stop/2407,,
6851,2412,"Sausupio st.","link centro",54.64722,25.21217,https://www.stops.lt/vilnius/index.html#stop/2412,,
5567,2414,"Vaduvos st.","iš centro",54.64487,25.20712,https://www.stops.lt/vilnius/index.html#stop/2414,,
6850,2415,"Vaduvos st.","link centro",54.64438,25.20665,https://www.stops.lt/vilnius/index.html#stop/2415,,
5542,2404,"Vilkpėdės st.","link centro",54.66478,25.23679,https://www.stops.lt/vilnius/index.html#stop/2404,,
5543,2405,"Vilkpėdės st.","iš centro",54.66331,25.23548,https://www.stops.lt/vilnius/index.html#stop/2405,,
5554,2413,"Žemieji Paneriai","iš centro",54.64608,25.20948,https://www.stops.lt/vilnius/index.html#stop/2413,,
7553,2422,"Jankiškių st.","link žiedo",54.64537,25.19468,https://www.stops.lt/vilnius/index.html#stop/2422,,
7554,2423,"Jankiškių st.","link centro",54.64506,25.19522,https://www.stops.lt/vilnius/index.html#stop/2423,,
5570,2419,"Šaltupio st.","link Savanorių pr.",54.64676,25.19113,https://www.stops.lt/vilnius/index.html#stop/2419,,
5571,2420,"Šaltupio st.","link žiedo",54.64734,25.19038,https://www.stops.lt/vilnius/index.html#stop/2420,,
1008,2421,"Titnago st.","link centro",54.64970,25.18613,https://www.stops.lt/vilnius/index.html#stop/2421,,
5594,2416,"Ūmėdžių st.","link centro",54.64262,25.20425,https://www.stops.lt/vilnius/index.html#stop/2416,,
1076,2418,"Valkininkų st.","link centro",54.64372,25.20184,https://www.stops.lt/vilnius/index.html#stop/2418,,
5557,2417,"Valkininkų st.","iš centro",54.64406,25.20256,https://www.stops.lt/vilnius/index.html#stop/2417,,
9384,2408,"Pakalniškių st.","link centro",54.65453,25.22513,https://www.stops.lt/vilnius/index.html#stop/2408,,
17505,2435,"Panerių kalvyno st.","iš centro",54.63880,25.20398,https://www.stops.lt/vilnius/index.html#stop/2435,,
17506,2436,"Panerių kalvyno st.","link centro",54.63899,25.20459,https://www.stops.lt/vilnius/index.html#stop/2436,,
17507,2437,"Skapiškio st.","",54.64137,25.20590,https://www.stops.lt/vilnius/index.html#stop/2437,,
16788,2428,"Titnago st.","link žiedo",54.65030,25.18546,https://www.stops.lt/vilnius/index.html#stop/2428,,
8374,2421a,"Titnago žiedas","išlaipinimas",54.65049,25.18459,https://www.stops.lt/vilnius/index.html#stop/2421a,,
17504,2434,"Skapiškio st.","iš centro",54.64083,25.20573,https://www.stops.lt/vilnius/index.html#stop/2434,,
8311,2424,"Vilkpėdės žiedas","įlaipinimas",54.66563,25.24565,https://www.stops.lt/vilnius/index.html#stop/2424,,
8312,2425,"Vilkpėdės žiedas","išlaipinimas",54.66575,25.24501,https://www.stops.lt/vilnius/index.html#stop/2425,,
5846,2014,"Jono Kazlausko st.","link centro",54.72145,25.28502,https://www.stops.lt/vilnius/index.html#stop/2014,,
5848,0801,"Jono Kazlausko st.","iš centro",54.72241,25.28381,https://www.stops.lt/vilnius/index.html#stop/0801,,
5125,0808,"Kareivių st.","link centro",54.71989,25.30161,https://www.stops.lt/vilnius/index.html#stop/0808,,
6873,0812,"Kareivių st.","iš centro",54.72062,25.30316,https://www.stops.lt/vilnius/index.html#stop/0812,,
5128,0805,"Pramogų arena","link centro",54.71556,25.28943,https://www.stops.lt/vilnius/index.html#stop/0805,,
6846,0804,"Pramogų arena","iš centro",54.71504,25.28821,https://www.stops.lt/vilnius/index.html#stop/0804,,
5494,0819,"Valakampių tiltas","link Žirmūnų",54.72356,25.30725,https://www.stops.lt/vilnius/index.html#stop/0819,,
6874,0820,"Valakampių tiltas","link Antakalnio",54.72409,25.30849,https://www.stops.lt/vilnius/index.html#stop/0820,,
5127,0807,"Verkių st.","link Kalvarijų g.",54.71687,25.29360,https://www.stops.lt/vilnius/index.html#stop/0807,,
6871,0806,"Verkių st.","link Valakampių",54.71732,25.29562,https://www.stops.lt/vilnius/index.html#stop/0806,,
5080,0710,"Licėjus","link Kalvarijų g.",54.71305,25.27899,https://www.stops.lt/vilnius/index.html#stop/0710,,
5131,2015,"Pramogų arena","link centro",54.71508,25.28573,https://www.stops.lt/vilnius/index.html#stop/2015,,
7589,0921,"Povilo Lukšio st.","įlaipinimas",54.71072,25.30239,https://www.stops.lt/vilnius/index.html#stop/0921,,
5013,0922,"Šiaurės miestelis","link žiedo",54.71139,25.30392,https://www.stops.lt/vilnius/index.html#stop/0922,,
5022,5177,"Autobusų parkas","link centro",54.72092,25.29589,https://www.stops.lt/vilnius/index.html#stop/5177,,
5147,0813,"Autobusų parkas","iš centro",54.72216,25.29669,https://www.stops.lt/vilnius/index.html#stop/0813,,
6847,0823,"Verkių st.","iš centro",54.71843,25.29553,https://www.stops.lt/vilnius/index.html#stop/0823,,
7691,0711,"Žalgirio st.","link Žirmūnų",54.70378,25.28221,https://www.stops.lt/vilnius/index.html#stop/0711,,
5086,0810,"Kareivių st.","link centro",54.71859,25.30393,https://www.stops.lt/vilnius/index.html#stop/0810,,
6668,0811,"Kareivių st.","iš centro",54.71934,25.30356,https://www.stops.lt/vilnius/index.html#stop/0811,,
5508,0817,"Šaltinėlio st.","link centro",54.72657,25.29674,https://www.stops.lt/vilnius/index.html#stop/0817,,
6671,0816,"Šaltinėlio st.","iš centro",54.72541,25.29826,https://www.stops.lt/vilnius/index.html#stop/0816,,
5149,0814,"Žirmūnų seniūnija","link centro",54.72190,25.30071,https://www.stops.lt/vilnius/index.html#stop/0814,,
5154,0815,"Žirmūnų seniūnija","iš centro",54.72236,25.29994,https://www.stops.lt/vilnius/index.html#stop/0815,,
5505,0818,"Žirmūnų žiedas","iš centro",54.72666,25.29710,https://www.stops.lt/vilnius/index.html#stop/0818,,
8463,2016,"Licėjus","iš centro",54.71314,25.27692,https://www.stops.lt/vilnius/index.html#stop/2016,,
18532,0930,"Jono Galvydžio st.","link Žirmūnų",54.71199,25.29395,https://www.stops.lt/vilnius/index.html#stop/0930,,
15167,0929,"Povilo Lukšio st.","išlaipinimas",54.71097,25.30067,https://www.stops.lt/vilnius/index.html#stop/0929,,
9565,0924,"Šiaurės miestelis","link Kalvarijų g.",54.71152,25.29786,https://www.stops.lt/vilnius/index.html#stop/0924,,
9566,0925,"Šiaurės miestelis","link Žirmūnų g.",54.71119,25.29938,https://www.stops.lt/vilnius/index.html#stop/0925,,
9637,0926,"Jono Galvydžio st.","link centro",54.71183,25.29233,https://www.stops.lt/vilnius/index.html#stop/0926,,
9638,0927,"Ulonų st.","link Žirmūnų g.",54.70889,25.29121,https://www.stops.lt/vilnius/index.html#stop/0927,,
9640,0928,"Ulonų st.","link centro",54.70921,25.29100,https://www.stops.lt/vilnius/index.html#stop/0928,,
18517,0810a,"Kareivių st.","link centro",54.71976,25.30287,https://www.stops.lt/vilnius/index.html#stop/0810a,,
8442,0817a,"Žirmūnų žiedas","",54.72685,25.29502,https://www.stops.lt/vilnius/index.html#stop/0817a,,
7331,5187,"Žygio st.","iš centro",54.70460,25.28946,https://www.stops.lt/vilnius/index.html#stop/5187,,
7044,0918,"Apkasų st.","link Šilo tilto",54.70393,25.29270,https://www.stops.lt/vilnius/index.html#stop/0918,,
7045,0917,"Apkasų st.","link Kalvarijų g.",54.70394,25.29142,https://www.stops.lt/vilnius/index.html#stop/0917,,
7042,0919,"Minties st.","link Kalvarijų g.",54.70507,25.29864,https://www.stops.lt/vilnius/index.html#stop/0919,,
7043,0920,"Minties st.","link Žirmūnų g.",54.70506,25.29968,https://www.stops.lt/vilnius/index.html#stop/0920,,
7325,5185,"Herkaus Manto st.","iš centro",54.70110,25.28660,https://www.stops.lt/vilnius/index.html#stop/5185,,
7326,5186,"Herkaus Manto st.","link centro",54.70068,25.28623,https://www.stops.lt/vilnius/index.html#stop/5186,,
7324,5184,"Rinktinės st.","iš centro",54.69508,25.28838,https://www.stops.lt/vilnius/index.html#stop/5184,,
7337,5188,"Rinktinės st.","link centro",54.69506,25.28809,https://www.stops.lt/vilnius/index.html#stop/5188,,
7322,5182,"Žvejų st.","iš centro",54.69004,25.28870,https://www.stops.lt/vilnius/index.html#stop/5182,,
7323,5183,"Žvejų st.","link centro",54.69170,25.28910,https://www.stops.lt/vilnius/index.html#stop/5183,,
5664,0907,"Rinktinės st.","link centro",54.69497,25.28955,https://www.stops.lt/vilnius/index.html#stop/0907,,
5665,0111,"Rinktinės st.","iš centro",54.69477,25.28954,https://www.stops.lt/vilnius/index.html#stop/0111,,
5662,0908,"Šeimyniškių st.","link centro",54.69566,25.29616,https://www.stops.lt/vilnius/index.html#stop/0908,,
6660,0112,"Šeimyniškių st.","link Šiaurės miestelio",54.69556,25.29687,https://www.stops.lt/vilnius/index.html#stop/0112,,
1032,0912,"Mikalojaus Katkaus st.","iš centro",54.70078,25.29246,https://www.stops.lt/vilnius/index.html#stop/0912,,
6544,0911,"Mikalojaus Katkaus st.","link centro",54.70009,25.29290,https://www.stops.lt/vilnius/index.html#stop/0911,,
6542,0913,"Trimitų st.","link Žirmūnų žiedo",54.70295,25.28893,https://www.stops.lt/vilnius/index.html#stop/0913,,
6546,0909,"Tuskulėnai","link Žirmūnų žiedo",54.69702,25.29706,https://www.stops.lt/vilnius/index.html#stop/0909,,
6547,0910,"Tuskulėnai","nuo Žirmūnų žiedo",54.69770,25.29670,https://www.stops.lt/vilnius/index.html#stop/0910,,
5658,0904,"Minties st.","link centro",54.70362,25.30416,https://www.stops.lt/vilnius/index.html#stop/0904,,
6666,0903,"Minties st.","iš centro",54.70418,25.30454,https://www.stops.lt/vilnius/index.html#stop/0903,,
5088,0902,"Šiaurės miestelis","link centro",54.71083,25.30465,https://www.stops.lt/vilnius/index.html#stop/0902,,
5606,0901,"Šiaurės miestelis","iš centro",54.71182,25.30509,https://www.stops.lt/vilnius/index.html#stop/0901,,
5661,0906,"Tuskulėnų rimties parkas","link centro",54.69757,25.30032,https://www.stops.lt/vilnius/index.html#stop/0906,,
6665,0905,"Tuskulėnų rimties parkas","iš centro",54.69823,25.30130,https://www.stops.lt/vilnius/index.html#stop/0905,,
5087,0822,"Žirmūnai","link centro",54.71595,25.30509,https://www.stops.lt/vilnius/index.html#stop/0822,,
6667,0821,"Žirmūnai","iš centro",54.71666,25.30545,https://www.stops.lt/vilnius/index.html#stop/0821,,
8001,4414,"Ąžuolų st.","link centro",54.72050,25.19473,https://www.stops.lt/vilnius/index.html#stop/4414,,
8002,4415,"Ąžuolų st.","iš centro",54.72171,25.19339,https://www.stops.lt/vilnius/index.html#stop/4415,,
318,4406,"Zujūnai","link centro",54.72671,25.18153,https://www.stops.lt/vilnius/index.html#stop/4406,,
7394,4410,"Zujūnai","link Gineitiškių",54.72662,25.18209,https://www.stops.lt/vilnius/index.html#stop/4410,,
7844,4412,"Senosios Gineitiškės","link Antežerių",54.73590,25.18928,https://www.stops.lt/vilnius/index.html#stop/4412,,
7845,4413,"Senosios Gineitiškės","link Pašilaičių",54.73565,25.19373,https://www.stops.lt/vilnius/index.html#stop/4413,,
7392,4408,"Antežeriai","link Pašilaičių",54.73377,25.18649,https://www.stops.lt/vilnius/index.html#stop/4408,,
7393,4409,"Antežeriai","link Zujūnų",54.73255,25.18527,https://www.stops.lt/vilnius/index.html#stop/4409,,
17230,3663,"Pergalės st.","iš centro",54.72432,25.17904,https://www.stops.lt/vilnius/index.html#stop/3663,,
17232,3664,"Pergalės st.","į centrą",54.72417,25.17860,https://www.stops.lt/vilnius/index.html#stop/3664,,
16896,4416,"Garbės st.","iš centro",54.73051,25.18419,https://www.stops.lt/vilnius/index.html#stop/4416,,
16898,4419,"Garbės st.","į centrą",54.72982,25.18311,https://www.stops.lt/vilnius/index.html#stop/4419,,
5533,0320,"Studentų st.","link Žirmūnų",54.69729,25.26327,https://www.stops.lt/vilnius/index.html#stop/0320,,
5534,0108,"Studentų st.","link Pilaitės",54.69724,25.26430,https://www.stops.lt/vilnius/index.html#stop/0108,,
6436,0304,"Kęstučio st.","iš centro",54.69121,25.25158,https://www.stops.lt/vilnius/index.html#stop/0304,,
6437,0303,"Kęstučio st.","link centro",54.68948,25.25190,https://www.stops.lt/vilnius/index.html#stop/0303,,
6434,0307,"Latvių st.","link centro",54.69385,25.25072,https://www.stops.lt/vilnius/index.html#stop/0307,,
6435,0308,"Latvių st.","iš centro",54.69433,25.25075,https://www.stops.lt/vilnius/index.html#stop/0308,,
6433,0311,"Sėlių st.","link centro",54.69744,25.24977,https://www.stops.lt/vilnius/index.html#stop/0311,,
5880,0301,"Liubarto tiltas","link centro",54.68893,25.25691,https://www.stops.lt/vilnius/index.html#stop/0301,,
6438,0302,"Liubarto tiltas","link Žvėryno",54.68908,25.25574,https://www.stops.lt/vilnius/index.html#stop/0302,,
6432,0312,"Sėlių st.","iš centro",54.69840,25.24868,https://www.stops.lt/vilnius/index.html#stop/0312,,
6430,0313,"Žvėrynas","link centro",54.69872,25.24565,https://www.stops.lt/vilnius/index.html#stop/0313,,
4898,5151,"Žvėryno žiedas","įlaipinimas",54.69846,25.24620,https://www.stops.lt/vilnius/index.html#stop/5151,,
814,0317,"Panorama","iš centro",54.69915,25.25704,https://www.stops.lt/vilnius/index.html#stop/0317,,
6396,0316,"Panorama","link centro",54.69892,25.25607,https://www.stops.lt/vilnius/index.html#stop/0316,,
6397,0318,"Švietimo akademija","link centro",54.69830,25.26121,https://www.stops.lt/vilnius/index.html#stop/0318,,
6404,0319,"Švietimo akademija","iš centro",54.69870,25.26133,https://www.stops.lt/vilnius/index.html#stop/0319,,
5906,0315,"Žvėrynas","iš centro",54.69948,25.24320,https://www.stops.lt/vilnius/index.html#stop/0315,,
6398,0314,"Žvėrynas","link centro",54.69938,25.24499,https://www.stops.lt/vilnius/index.html#stop/0314,,
5220,0321,"Saltoniškės","link centro",54.70123,25.26289,https://www.stops.lt/vilnius/index.html#stop/0321,,
5289,1901,"Saltoniškės","link Šeškinės",54.70231,25.26185,https://www.stops.lt/vilnius/index.html#stop/1901,,
632,0309,"Džocharo Dudajevo skv.","iš centro",54.69583,25.25609,https://www.stops.lt/vilnius/index.html#stop/0309,,
5872,0310,"Džocharo Dudajevo skv.","link centro",54.69585,25.25585,https://www.stops.lt/vilnius/index.html#stop/0310,,
1116,0305,"Vytauto st.","iš centro",54.69117,25.25643,https://www.stops.lt/vilnius/index.html#stop/0305,,
5875,0306,"Vytauto st.","link centro",54.69173,25.25622,https://www.stops.lt/vilnius/index.html#stop/0306,,
5462,0702,"Linkmenų st.","link Žirmūnų",54.70453,25.27236,https://www.stops.lt/vilnius/index.html#stop/0702,,
5499,0701,"Linkmenų st.","link Geležinio Vilko g.",54.70487,25.26979,https://www.stops.lt/vilnius/index.html#stop/0701,,
18481,5151b,"Žvėryno žiedas","išlaipinimas",54.69866,25.24504,https://www.stops.lt/vilnius/index.html#stop/5151b,,
18480,5151a,"Žvėryno žiedas","išlaipinimas",54.69833,25.24528,https://www.stops.lt/vilnius/index.html#stop/5151a,,